{
    "1000": {
        "city": "Bruxelles",
        "lng": 4.351697,
        "lat": 50.8465573
    },
    "1020": {
        "city": "Laeken",
        "lng": 4.3487134,
        "lat": 50.883392
    },
    "1030": {
        "city": "Schaerbeek",
        "lng": 4.3737121,
        "lat": 50.8676041
    },
    "1040": {
        "city": "Etterbeek",
        "lng": 4.3895104,
        "lat": 50.8368511
    },
    "1050": {
        "city": "Ixelles",
        "lng": 4.3815707,
        "lat": 50.8222854
    },
    "1060": {
        "city": "Saint-Gilles",
        "lng": 4.345668,
        "lat": 50.8267409
    },
    "1070": {
        "city": "Anderlecht",
        "lng": 4.3123401,
        "lat": 50.8381411
    },
    "1080": {
        "city": "Molenbeek-Saint-Jean",
        "lng": 4.3227779,
        "lat": 50.8543551
    },
    "1081": {
        "city": "Koekelberg",
        "lng": 4.3257084,
        "lat": 50.8622633
    },
    "1082": {
        "city": "Berchem-Sainte-Agathe",
        "lng": 4.292702,
        "lat": 50.8639835
    },
    "1083": {
        "city": "Ganshoren",
        "lng": 4.3175103,
        "lat": 50.8712396
    },
    "1090": {
        "city": "Jette",
        "lng": 4.3260903,
        "lat": 50.8777634
    },
    "1120": {
        "city": "Neder-Over-Heembeek",
        "lng": 4.3904888684211,
        "lat": 50.89779605
    },
    "1130": {
        "city": "Haren",
        "lng": 4.4125708732431,
        "lat": 50.8919661
    },
    "1140": {
        "city": "Evere",
        "lng": 4.4021602,
        "lat": 50.8704524
    },
    "1150": {
        "city": "Woluwe-Saint-Pierre",
        "lng": 4.4432967,
        "lat": 50.8292429
    },
    "1160": {
        "city": "Auderghem",
        "lng": 4.4331389,
        "lat": 50.8156571
    },
    "1170": {
        "city": "Watermael-Boitsfort",
        "lng": 4.4158177,
        "lat": 50.799394
    },
    "1180": {
        "city": "Uccle",
        "lng": 4.3372348,
        "lat": 50.8018201
    },
    "1190": {
        "city": "Forest",
        "lng": 4.3177512,
        "lat": 50.8091426
    },
    "1200": {
        "city": "Woluwe-Saint-Lambert",
        "lng": 4.4284842,
        "lat": 50.8466928
    },
    "1210": {
        "city": "Saint-Josse-Ten-Noode",
        "lng": 4.3723364,
        "lat": 50.8530739
    },
    "1300": {
        "city": "Wavre",
        "lng": 4.607744,
        "lat": 50.7164189
    },
    "1301": {
        "city": "Bierges",
        "lng": 4.5894025,
        "lat": 50.7111796
    },
    "1310": {
        "city": "La Hulpe",
        "lng": 4.4796542,
        "lat": 50.7315053
    },
    "1315": {
        "city": "Roux-Miroir",
        "lng": 4.7848246,
        "lat": 50.7085122
    },
    "1320": {
        "city": "Tourinnes-La-Grosse",
        "lng": 4.7472104,
        "lat": 50.7777654
    },
    "1325": {
        "city": "Longueville",
        "lng": 4.7392389,
        "lat": 50.7024404
    },
    "1330": {
        "city": "Rixensart",
        "lng": 4.5272896887008,
        "lat": 50.7133548
    },
    "1331": {
        "city": "Rosières",
        "lng": 4.5463113019639,
        "lat": 50.73713045
    },
    "1332": {
        "city": "Genval",
        "lng": 4.4971389344121,
        "lat": 50.72074495
    },
    "1340": {
        "city": "Ottignies-Louvain-La-Neuve",
        "lng": 4.5804937701303,
        "lat": 50.6726725
    },
    "1341": {
        "city": "Céroux-Mousty",
        "lng": 4.5291742660159,
        "lat": 50.6625713
    },
    "1342": {
        "city": "Limelette",
        "lng": 4.5549022761211,
        "lat": 50.6851551
    },
    "1348": {
        "city": "Louvain-La-Neuve",
        "lng": 4.6141567317211,
        "lat": 50.6741689
    },
    "1350": {
        "city": "Orp-Le-Grand",
        "lng": 4.9912852,
        "lat": 50.7034875
    },
    "1357": {
        "city": "Opheylissem",
        "lng": 4.9780806,
        "lat": 50.7478407
    },
    "1360": {
        "city": "Thorembais-Saint-Trond",
        "lng": 4.7839333,
        "lat": 50.6357579
    },
    "1367": {
        "city": "Ramillies",
        "lng": 4.9148994,
        "lat": 50.6366892
    },
    "1370": {
        "city": "Zétrud-Lumay",
        "lng": 4.8838518,
        "lat": 50.7592057
    },
    "1380": {
        "city": "Plancenoit",
        "lng": 4.4212124182736,
        "lat": 50.66254755
    },
    "1390": {
        "city": "Nethen",
        "lng": 4.6736552349571,
        "lat": 50.78382875
    },
    "1400": {
        "city": "Nivelles",
        "lng": 4.3319091758631,
        "lat": 50.58916295
    },
    "1401": {
        "city": "Baulers",
        "lng": 4.3586482570372,
        "lat": 50.6172472
    },
    "1402": {
        "city": "Thines",
        "lng": 4.3825954093731,
        "lat": 50.58678735
    },
    "1404": {
        "city": "Bornival",
        "lng": 4.2649262209555,
        "lat": 50.6048658
    },
    "1410": {
        "city": "Waterloo",
        "lng": 4.3978047,
        "lat": 50.7173563
    },
    "1420": {
        "city": "Braine-L'alleud",
        "lng": 4.3548145440335,
        "lat": 50.6940942
    },
    "1421": {
        "city": "Ophain-Bois-Seigneur-Isaac",
        "lng": 4.3507902353934,
        "lat": 50.65630215
    },
    "1428": {
        "city": "Lillois-Witterzée",
        "lng": 4.3670582,
        "lat": 50.6483743
    },
    "1430": {
        "city": "Rebecq-Rognon",
        "lng": 4.1350275503194,
        "lat": 50.67355825
    },
    "1435": {
        "city": "Mont-Saint-Guibert",
        "lng": 4.6127019,
        "lat": 50.6365628
    },
    "1440": {
        "city": "Wauthier-Braine",
        "lng": 4.3133036337455,
        "lat": 50.68083185
    },
    "1450": {
        "city": "Saint-Géry",
        "lng": 4.6202848419069,
        "lat": 50.57660545
    },
    "1457": {
        "city": "Walhain-Saint-Paul",
        "lng": 4.6952241,
        "lat": 50.6167794
    },
    "1460": {
        "city": "Virginal-Samme",
        "lng": 4.2199759440369,
        "lat": 50.6413403
    },
    "1461": {
        "city": "Haut-Ittre",
        "lng": 4.2964719513591,
        "lat": 50.6488039
    },
    "1470": {
        "city": "Genappe",
        "lng": 4.4479459851741,
        "lat": 50.60800575
    },
    "1471": {
        "city": "Loupoigne",
        "lng": 4.4319644959116,
        "lat": 50.5929226
    },
    "1472": {
        "city": "Vieux-Genappe",
        "lng": 4.4015030981612,
        "lat": 50.62902485
    },
    "1473": {
        "city": "Glabais",
        "lng": 4.4464886939844,
        "lat": 50.63691535
    },
    "1474": {
        "city": "Ways",
        "lng": 4.4729429472611,
        "lat": 50.6269861
    },
    "1476": {
        "city": "Houtain-Le-Val",
        "lng": 4.4110339517433,
        "lat": 50.5762935
    },
    "1480": {
        "city": "Tubize",
        "lng": 4.204696,
        "lat": 50.69302
    },
    "1490": {
        "city": "Court-Saint-Etienne",
        "lng": 4.5685766,
        "lat": 50.6443208
    },
    "1495": {
        "city": "Villers-La-Ville",
        "lng": 4.516035801462,
        "lat": 50.5640258
    },
    "1500": {
        "city": "Halle",
        "lng": 4.2374349,
        "lat": 50.7360524
    },
    "1501": {
        "city": "Buizingen",
        "lng": 4.2605080818496,
        "lat": 50.73793415
    },
    "1502": {
        "city": "Lembeek",
        "lng": 4.2143430588907,
        "lat": 50.7092954
    },
    "1540": {
        "city": "Herne",
        "lng": 4.0260115663497,
        "lat": 50.72329555
    },
    "1541": {
        "city": "Sint-Pieters-Kapelle",
        "lng": 3.9985766720315,
        "lat": 50.70721955
    },
    "1547": {
        "city": "Biévène",
        "lng": 3.943147,
        "lat": 50.7164481
    },
    "1560": {
        "city": "Hoeilaart",
        "lng": 4.474407,
        "lat": 50.7674846
    },
    "1570": {
        "city": "Vollezele",
        "lng": 4.0247359,
        "lat": 50.76088
    },
    "1600": {
        "city": "Sint-Pieters-Leeuw",
        "lng": 4.2452186173064,
        "lat": 50.78118355
    },
    "1601": {
        "city": "Ruisbroek",
        "lng": 4.298610469732,
        "lat": 50.7848617
    },
    "1602": {
        "city": "Vlezenbeek",
        "lng": 4.2360410720845,
        "lat": 50.805593
    },
    "1620": {
        "city": "Drogenbos",
        "lng": 4.3173542,
        "lat": 50.786532
    },
    "1630": {
        "city": "Linkebeek",
        "lng": 4.3345641,
        "lat": 50.7716092
    },
    "1640": {
        "city": "Rhode-Saint-Genèse",
        "lng": 4.3463687,
        "lat": 50.74503
    },
    "1650": {
        "city": "Beersel",
        "lng": 4.3051321494591,
        "lat": 50.7684432
    },
    "1651": {
        "city": "Lot",
        "lng": 4.2729986221483,
        "lat": 50.76514035
    },
    "1652": {
        "city": "Alsemberg",
        "lng": 4.3281703413079,
        "lat": 50.7449476
    },
    "1653": {
        "city": "Dworp",
        "lng": 4.2950152833964,
        "lat": 50.73423975
    },
    "1654": {
        "city": "Huizingen",
        "lng": 4.2732545968764,
        "lat": 50.74931535
    },
    "1670": {
        "city": "Pepingen",
        "lng": 4.1785882891377,
        "lat": 50.7511702
    },
    "1671": {
        "city": "Elingen",
        "lng": 4.174198071757,
        "lat": 50.7793527
    },
    "1673": {
        "city": "Beert",
        "lng": 4.1853449364222,
        "lat": 50.7354888
    },
    "1674": {
        "city": "Bellingen",
        "lng": 4.1601450278998,
        "lat": 50.73779765
    },
    "1700": {
        "city": "Sint-Ulriks-Kapelle",
        "lng": 4.2206526,
        "lat": 50.8800337
    },
    "1701": {
        "city": "Itterbeek",
        "lng": 4.2501187,
        "lat": 50.8395994
    },
    "1702": {
        "city": "Groot-Bijgaarden",
        "lng": 4.2635668372339,
        "lat": 50.8714357
    },
    "1703": {
        "city": "Schepdaal",
        "lng": 4.195149072634,
        "lat": 50.8363077
    },
    "1730": {
        "city": "Mollem",
        "lng": 4.2239826,
        "lat": 50.9328497
    },
    "1731": {
        "city": "Zellik",
        "lng": 4.2744185,
        "lat": 50.8842475
    },
    "1740": {
        "city": "Ternat",
        "lng": 4.1834171401216,
        "lat": 50.87155835
    },
    "1741": {
        "city": "Wambeek",
        "lng": 4.1646372476962,
        "lat": 50.85672975
    },
    "1742": {
        "city": "Sint-Katherina-Lombeek",
        "lng": 4.1535568,
        "lat": 50.8726659
    },
    "1745": {
        "city": "Opwijk",
        "lng": 4.1896665,
        "lat": 50.9690529
    },
    "1750": {
        "city": "Sint-Martens-Lennik",
        "lng": 4.1695303908975,
        "lat": 50.8115319
    },
    "1755": {
        "city": "Oetingen",
        "lng": 4.0614624,
        "lat": 50.7720719
    },
    "1760": {
        "city": "Strijtem",
        "lng": 4.1145703,
        "lat": 50.8405541
    },
    "1761": {
        "city": "Borchtlombeek",
        "lng": 4.1369148649611,
        "lat": 50.84817805
    },
    "1770": {
        "city": "Liedekerke",
        "lng": 4.0860754,
        "lat": 50.8711313
    },
    "1780": {
        "city": "Wemmel",
        "lng": 4.3108723,
        "lat": 50.9145955
    },
    "1785": {
        "city": "Merchtem",
        "lng": 4.2327769,
        "lat": 50.9591981
    },
    "1790": {
        "city": "Teralfene",
        "lng": 4.09834,
        "lat": 50.8921419
    },
    "1800": {
        "city": "Vilvoorde",
        "lng": 4.4329052514838,
        "lat": 50.92813655
    },
    "1820": {
        "city": "Steenokkerzeel",
        "lng": 4.5110471,
        "lat": 50.9093488
    },
    "1830": {
        "city": "Machelen",
        "lng": 4.4353614,
        "lat": 50.9124219
    },
    "1831": {
        "city": "Diegem",
        "lng": 4.4365042,
        "lat": 50.8945555
    },
    "1840": {
        "city": "Steenhuffel",
        "lng": 4.2624672,
        "lat": 50.9944384
    },
    "1850": {
        "city": "Grimbergen",
        "lng": 4.4013732626459,
        "lat": 50.95030565
    },
    "1851": {
        "city": "Humbeek",
        "lng": 4.3777599282045,
        "lat": 50.9728229
    },
    "1852": {
        "city": "Beigem",
        "lng": 4.3638682,
        "lat": 50.9527061
    },
    "1853": {
        "city": "Strombeek-Bever",
        "lng": 4.342355501959,
        "lat": 50.91096285
    },
    "1860": {
        "city": "Meise",
        "lng": 4.3287322,
        "lat": 50.9341625
    },
    "1861": {
        "city": "Wolvertem",
        "lng": 4.3085198,
        "lat": 50.9510266
    },
    "1880": {
        "city": "Ramsdonk",
        "lng": 4.3374964007802,
        "lat": 51.0114961
    },
    "1910": {
        "city": "Nederokkerzeel",
        "lng": 4.5645096,
        "lat": 50.9190127
    },
    "1930": {
        "city": "Zaventem",
        "lng": 4.4745515,
        "lat": 50.8804355
    },
    "1932": {
        "city": "Sint-Stevens-Woluwe",
        "lng": 4.4359939711919,
        "lat": 50.8662434
    },
    "1933": {
        "city": "Sterrebeek",
        "lng": 4.5157438438279,
        "lat": 50.85395875
    },
    "1950": {
        "city": "Kraainem",
        "lng": 4.4691371,
        "lat": 50.8606105
    },
    "1970": {
        "city": "Wezembeek-Oppem",
        "lng": 4.4871796,
        "lat": 50.8440554
    },
    "1980": {
        "city": "Zemst",
        "lng": 4.44412333945,
        "lat": 50.9865028
    },
    "1981": {
        "city": "Hofstade",
        "lng": 4.5042526607237,
        "lat": 50.9939033
    },
    "1982": {
        "city": "Weerde",
        "lng": 4.479869,
        "lat": 50.9722782
    },
    "2000": {
        "city": "Antwerpen",
        "lng": 4.3997081,
        "lat": 51.2211097
    },
    "2018": {
        "city": "Antwerpen",
        "lng": 4.3997081,
        "lat": 51.2211097
    },
    "2020": {
        "city": "Antwerpen",
        "lng": 4.3997081,
        "lat": 51.2211097
    },
    "2030": {
        "city": "Antwerpen",
        "lng": 4.3997081,
        "lat": 51.2211097
    },
    "2040": {
        "city": "Zandvliet",
        "lng": 4.2836261784487,
        "lat": 51.35984975
    },
    "2050": {
        "city": "Antwerpen",
        "lng": 4.3997081,
        "lat": 51.2211097
    },
    "2060": {
        "city": "Antwerpen",
        "lng": 4.3997081,
        "lat": 51.2211097
    },
    "2070": {
        "city": "Zwijndrecht",
        "lng": 4.3188693282188,
        "lat": 51.23062085
    },
    "2100": {
        "city": "Deurne",
        "lng": 4.4695254092764,
        "lat": 51.2115284
    },
    "2110": {
        "city": "Wijnegem",
        "lng": 4.5225318,
        "lat": 51.2270761
    },
    "2140": {
        "city": "Borgerhout",
        "lng": 4.4403895064496,
        "lat": 51.21029905
    },
    "2150": {
        "city": "Borsbeek",
        "lng": 4.488953,
        "lat": 51.1928907
    },
    "2160": {
        "city": "Wommelgem",
        "lng": 4.5238022,
        "lat": 51.2031044
    },
    "2170": {
        "city": "Merksem",
        "lng": 4.4453401635115,
        "lat": 51.24994295
    },
    "2180": {
        "city": "Ekeren",
        "lng": 4.4322870782182,
        "lat": 51.2842045
    },
    "2200": {
        "city": "Noorderwijk",
        "lng": 4.8401277,
        "lat": 51.1415564
    },
    "2220": {
        "city": "Heist-Op-Den-Berg",
        "lng": 4.7193765534389,
        "lat": 51.06251415
    },
    "2221": {
        "city": "Booischot",
        "lng": 4.7692867998141,
        "lat": 51.0471677
    },
    "2222": {
        "city": "Wiekevorst",
        "lng": 4.7853558986493,
        "lat": 51.10609435
    },
    "2223": {
        "city": "Schriek",
        "lng": 4.4361161,
        "lat": 51.2907379
    },
    "2230": {
        "city": "Ramsel",
        "lng": 4.8336098,
        "lat": 51.0324718
    },
    "2235": {
        "city": "Westmeerbeek",
        "lng": 4.8351334,
        "lat": 51.0603638
    },
    "2240": {
        "city": "Zandhoven",
        "lng": 4.6595103,
        "lat": 51.2147918
    },
    "2242": {
        "city": "Pulderbos",
        "lng": 4.7033852099385,
        "lat": 51.2257319
    },
    "2243": {
        "city": "Pulle",
        "lng": 4.6975445276147,
        "lat": 51.2011609
    },
    "2250": {
        "city": "Olen",
        "lng": 4.8597257,
        "lat": 51.1438611
    },
    "2260": {
        "city": "Zoerle-Parwijs",
        "lng": 4.8729402,
        "lat": 51.0880889
    },
    "2270": {
        "city": "Herenthout",
        "lng": 4.7543972,
        "lat": 51.1392427
    },
    "2275": {
        "city": "Wechelderzande",
        "lng": 4.7910582697468,
        "lat": 51.26541275
    },
    "2280": {
        "city": "Grobbendonk",
        "lng": 4.7318844301963,
        "lat": 51.18870335
    },
    "2288": {
        "city": "Bouwel",
        "lng": 4.7370614385825,
        "lat": 51.16210045
    },
    "2290": {
        "city": "Vorselaar",
        "lng": 4.769482,
        "lat": 51.2023448
    },
    "2300": {
        "city": "Turnhout",
        "lng": 4.948461,
        "lat": 51.3233812
    },
    "2310": {
        "city": "Rijkevorsel",
        "lng": 4.760708,
        "lat": 51.3495046
    },
    "2320": {
        "city": "Hoogstraten",
        "lng": 4.7440656414186,
        "lat": 51.39574085
    },
    "2321": {
        "city": "Meer",
        "lng": 4.7372548575575,
        "lat": 51.46092495
    },
    "2322": {
        "city": "Minderhout",
        "lng": 4.8070790487489,
        "lat": 51.43155825
    },
    "2323": {
        "city": "Wortel",
        "lng": 4.8085930879726,
        "lat": 51.3975366
    },
    "2328": {
        "city": "Meerle",
        "lng": 4.8051679,
        "lat": 51.4743516
    },
    "2330": {
        "city": "Merksplas",
        "lng": 4.8627541,
        "lat": 51.3580597
    },
    "2340": {
        "city": "Vlimmeren",
        "lng": 4.7821797,
        "lat": 51.2988018
    },
    "2350": {
        "city": "Vosselaar",
        "lng": 4.8878026,
        "lat": 51.3129153
    },
    "2360": {
        "city": "Oud-Turnhout",
        "lng": 4.9817086,
        "lat": 51.3178319
    },
    "2370": {
        "city": "Arendonk",
        "lng": 5.0864557,
        "lat": 51.3202315
    },
    "2380": {
        "city": "Ravels",
        "lng": 5.0198122919518,
        "lat": 51.3808625
    },
    "2381": {
        "city": "Weelde",
        "lng": 5.0182445420616,
        "lat": 51.41206885
    },
    "2382": {
        "city": "Poppel",
        "lng": 5.0488069670452,
        "lat": 51.45063155
    },
    "2387": {
        "city": "Baarle-Hertog",
        "lng": 4.9004051710883,
        "lat": 51.412750431352
    },
    "2390": {
        "city": "Westmalle",
        "lng": 4.6713095211155,
        "lat": 51.29940565
    },
    "2400": {
        "city": "Mol",
        "lng": 5.1155267,
        "lat": 51.1840421
    },
    "2430": {
        "city": "Vorst",
        "lng": 5.0188161,
        "lat": 51.0790117
    },
    "2431": {
        "city": "Veerle",
        "lng": 4.9805536902848,
        "lat": 51.0592049
    },
    "2440": {
        "city": "Geel",
        "lng": 4.9903187,
        "lat": 51.1610826
    },
    "2450": {
        "city": "Meerhout",
        "lng": 5.0772388,
        "lat": 51.1317433
    },
    "2460": {
        "city": "Tielen",
        "lng": 4.8965455,
        "lat": 51.2422595
    },
    "2470": {
        "city": "Retie",
        "lng": 5.0843883,
        "lat": 51.2675862
    },
    "2480": {
        "city": "Dessel",
        "lng": 5.113243,
        "lat": 51.2395713
    },
    "2490": {
        "city": "Balen",
        "lng": 5.1937730761009,
        "lat": 51.171804
    },
    "2491": {
        "city": "Olmen",
        "lng": 5.1648214462792,
        "lat": 51.13368515
    },
    "2500": {
        "city": "Lier",
        "lng": 4.5696516,
        "lat": 51.131069
    },
    "2520": {
        "city": "Ranst",
        "lng": 4.5637563614009,
        "lat": 51.1961732
    },
    "2530": {
        "city": "Boechout",
        "lng": 4.510406865149,
        "lat": 51.1596941
    },
    "2531": {
        "city": "Vremde",
        "lng": 4.5226229,
        "lat": 51.1753099
    },
    "2540": {
        "city": "Hove",
        "lng": 4.477387,
        "lat": 51.1486117
    },
    "2547": {
        "city": "Lint",
        "lng": 4.4922187,
        "lat": 51.1268305
    },
    "2550": {
        "city": "Waarloos",
        "lng": 4.453,
        "lat": 51.1052659
    },
    "2560": {
        "city": "Nijlen",
        "lng": 4.6709517317049,
        "lat": 51.1611887
    },
    "2570": {
        "city": "Duffel",
        "lng": 4.5061988,
        "lat": 51.0957176
    },
    "2580": {
        "city": "Putte",
        "lng": 4.6310473,
        "lat": 51.0570823
    },
    "2590": {
        "city": "Gestel",
        "lng": 4.6646313199891,
        "lat": 51.12758685
    },
    "2600": {
        "city": "Berchem",
        "lng": 4.4317026387884,
        "lat": 51.1918493
    },
    "2610": {
        "city": "Wilrijk",
        "lng": 4.3876309610455,
        "lat": 51.1638451
    },
    "2620": {
        "city": "Hemiksem",
        "lng": 4.3420555,
        "lat": 51.1442105
    },
    "2627": {
        "city": "Schelle",
        "lng": 4.3361875,
        "lat": 51.1245635
    },
    "2630": {
        "city": "Aartselaar",
        "lng": 4.3870241,
        "lat": 51.133297
    },
    "2640": {
        "city": "Mortsel",
        "lng": 4.4593335,
        "lat": 51.1741789
    },
    "2650": {
        "city": "Edegem",
        "lng": 4.4384284,
        "lat": 51.1574786
    },
    "2660": {
        "city": "Hoboken",
        "lng": 4.3511502171395,
        "lat": 51.1757824
    },
    "2800": {
        "city": "Walem",
        "lng": 4.4568748,
        "lat": 51.0657941
    },
    "2801": {
        "city": "Heffen",
        "lng": 4.4124762563322,
        "lat": 51.0519355
    },
    "2811": {
        "city": "Leest",
        "lng": 4.4150058,
        "lat": 51.0350559
    },
    "2812": {
        "city": "Muizen",
        "lng": 4.5182999731643,
        "lat": 51.0083206
    },
    "2820": {
        "city": "Rijmenam",
        "lng": 4.5842221,
        "lat": 51.0010818
    },
    "2830": {
        "city": "Willebroek",
        "lng": 4.3572324644033,
        "lat": 51.0626964
    },
    "2840": {
        "city": "Terhagen",
        "lng": 4.3993623,
        "lat": 51.078277
    },
    "2845": {
        "city": "Niel",
        "lng": 4.3303396,
        "lat": 51.1098649
    },
    "2850": {
        "city": "Boom",
        "lng": 4.3667216,
        "lat": 51.0873789
    },
    "2860": {
        "city": "Sint-Katelijne-Waver",
        "lng": 4.5114278140147,
        "lat": 51.06232435
    },
    "2861": {
        "city": "Onze-Lieve-Vrouw-Waver",
        "lng": 4.5799614,
        "lat": 51.0624913
    },
    "2870": {
        "city": "Ruisbroek",
        "lng": 4.3379815821239,
        "lat": 51.0802059
    },
    "2880": {
        "city": "Weert",
        "lng": 4.1855882750296,
        "lat": 51.10151195
    },
    "2890": {
        "city": "Sint-Amands",
        "lng": 4.2107348196593,
        "lat": 51.0463409
    },
    "2900": {
        "city": "Schoten",
        "lng": 4.4980446,
        "lat": 51.2516344
    },
    "2910": {
        "city": "Essen",
        "lng": 4.4701309,
        "lat": 51.4677957
    },
    "2920": {
        "city": "Kalmthout",
        "lng": 4.4763255,
        "lat": 51.3832723
    },
    "2930": {
        "city": "Brasschaat",
        "lng": 4.489307,
        "lat": 51.2930933
    },
    "2940": {
        "city": "Stabroek",
        "lng": 4.370312016044,
        "lat": 51.33518735
    },
    "2950": {
        "city": "Kapellen",
        "lng": 4.4312318305558,
        "lat": 51.332759
    },
    "2960": {
        "city": "Sint-Lenaarts",
        "lng": 4.6782162,
        "lat": 51.3453831
    },
    "2970": {
        "city": "Schilde",
        "lng": 4.5955157359888,
        "lat": 51.257095
    },
    "2980": {
        "city": "Zoersel",
        "lng": 4.7132557,
        "lat": 51.2716725
    },
    "2990": {
        "city": "Wuustwezel",
        "lng": 4.5651743450402,
        "lat": 51.38525
    },
    "3000": {
        "city": "Leuven",
        "lng": 4.6929903215189,
        "lat": 50.8812533
    },
    "3001": {
        "city": "Heverlee",
        "lng": 4.6931307510281,
        "lat": 50.85172925
    },
    "3010": {
        "city": "Kessel Lo",
        "lng": 4.7307614946269,
        "lat": 50.88991545
    },
    "3012": {
        "city": "Wilsele",
        "lng": 4.7136294,
        "lat": 50.9095362
    },
    "3018": {
        "city": "Wijgmaal",
        "lng": 4.7001214,
        "lat": 50.926428
    },
    "3020": {
        "city": "Winksele",
        "lng": 4.6404471957661,
        "lat": 50.9124843
    },
    "3040": {
        "city": "Sint-Agatha-Rode",
        "lng": 4.6329556561262,
        "lat": 50.7794761
    },
    "3050": {
        "city": "Oud-Heverlee",
        "lng": 4.6678971,
        "lat": 50.8217682
    },
    "3051": {
        "city": "Sint-Joris-Weert",
        "lng": 4.6458289787229,
        "lat": 50.8051035
    },
    "3052": {
        "city": "Blanden",
        "lng": 4.7056796612254,
        "lat": 50.8281673
    },
    "3053": {
        "city": "Haasrode",
        "lng": 4.7283706944623,
        "lat": 50.81785645
    },
    "3054": {
        "city": "Vaalbeek",
        "lng": 4.6852713590102,
        "lat": 50.82408165
    },
    "3060": {
        "city": "Korbeek-Dijle",
        "lng": 4.6299439737893,
        "lat": 50.847010125156
    },
    "3061": {
        "city": "Leefdaal",
        "lng": 4.5905043649411,
        "lat": 50.8419887
    },
    "3070": {
        "city": "Kortenberg",
        "lng": 4.5364707039624,
        "lat": 50.88326665
    },
    "3071": {
        "city": "Erps-Kwerps",
        "lng": 4.5750864125531,
        "lat": 50.9104969
    },
    "3078": {
        "city": "Meerbeek",
        "lng": 4.5972692536847,
        "lat": 50.8782935
    },
    "3080": {
        "city": "Vossem",
        "lng": 4.5565660886042,
        "lat": 50.83488335
    },
    "3090": {
        "city": "Overijse",
        "lng": 4.5385226,
        "lat": 50.7729254
    },
    "3110": {
        "city": "Rotselaar",
        "lng": 4.7143205960258,
        "lat": 50.9543637
    },
    "3111": {
        "city": "Wezemaal",
        "lng": 4.7683306885409,
        "lat": 50.9482552
    },
    "3118": {
        "city": "Werchter",
        "lng": 4.7026877230529,
        "lat": 50.9707189
    },
    "3120": {
        "city": "Tremelo",
        "lng": 4.6755134,
        "lat": 50.9900457
    },
    "3128": {
        "city": "Baal",
        "lng": 4.7505367662714,
        "lat": 51.0075269
    },
    "3130": {
        "city": "Betekom",
        "lng": 4.7908301771478,
        "lat": 50.99602795
    },
    "3140": {
        "city": "Keerbergen",
        "lng": 4.6265551,
        "lat": 51.0049242
    },
    "3150": {
        "city": "Wespelaar",
        "lng": 4.6325890563885,
        "lat": 50.95645295
    },
    "3190": {
        "city": "Boortmeerbeek",
        "lng": 4.575800525,
        "lat": 50.97828585
    },
    "3191": {
        "city": "Hever",
        "lng": 4.5553278,
        "lat": 50.9925865
    },
    "3200": {
        "city": "Gelrode",
        "lng": 4.8042730440984,
        "lat": 50.9670761
    },
    "3201": {
        "city": "Langdorp",
        "lng": 4.8856989624279,
        "lat": 51.0118664
    },
    "3202": {
        "city": "Rillaar",
        "lng": 4.8970494266873,
        "lat": 50.97591095
    },
    "3210": {
        "city": "Lubbeek",
        "lng": 4.8400599406417,
        "lat": 50.8821122
    },
    "3211": {
        "city": "Binkom",
        "lng": 4.8908885858013,
        "lat": 50.8721422
    },
    "3212": {
        "city": "Pellenberg",
        "lng": 4.7894086649098,
        "lat": 50.87211325
    },
    "3220": {
        "city": "Sint-Pieters-Rode",
        "lng": 4.8291872982184,
        "lat": 50.9208131
    },
    "3221": {
        "city": "Nieuwrode",
        "lng": 4.8338045392342,
        "lat": 50.9470265
    },
    "3270": {
        "city": "Scherpenheuvel-Zichem",
        "lng": 4.9754325657663,
        "lat": 50.9689147
    },
    "3271": {
        "city": "Zichem",
        "lng": 4.984958799435,
        "lat": 51.0085771
    },
    "3272": {
        "city": "Testelt",
        "lng": 4.9484707287374,
        "lat": 51.0192772
    },
    "3290": {
        "city": "Webbekom",
        "lng": 5.054414061955,
        "lat": 50.9649291
    },
    "3293": {
        "city": "Kaggevinne",
        "lng": 5.0299404926122,
        "lat": 50.9776976
    },
    "3294": {
        "city": "Molenstede",
        "lng": 5.0247465287649,
        "lat": 51.0071839
    },
    "3300": {
        "city": "Vissenaken",
        "lng": 4.9111431209758,
        "lat": 50.84379005
    },
    "3320": {
        "city": "Meldert",
        "lng": 4.8294566856141,
        "lat": 50.78956675
    },
    "3321": {
        "city": "Outgaarden",
        "lng": 4.9193571,
        "lat": 50.7665968
    },
    "3350": {
        "city": "Wommersom",
        "lng": 5.0183106289924,
        "lat": 50.812361
    },
    "3360": {
        "city": "Opvelp",
        "lng": 4.7912847996064,
        "lat": 50.80732735
    },
    "3370": {
        "city": "Willebringen",
        "lng": 4.8387022883011,
        "lat": 50.80664425
    },
    "3380": {
        "city": "Glabbeek",
        "lng": 4.9513009,
        "lat": 50.8725203
    },
    "3381": {
        "city": "Kapellen",
        "lng": 4.9608776189751,
        "lat": 50.88734525
    },
    "3384": {
        "city": "Attenrode",
        "lng": 4.9167554140969,
        "lat": 50.8694607
    },
    "3390": {
        "city": "Tielt-Winge",
        "lng": 4.8863781815823,
        "lat": 50.9242724
    },
    "3391": {
        "city": "Meensel-Kiezegem",
        "lng": 4.9173431325348,
        "lat": 50.8950541
    },
    "3400": {
        "city": "Wange",
        "lng": 5.0302723897201,
        "lat": 50.7838394
    },
    "3401": {
        "city": "Wezeren",
        "lng": 5.1094961371256,
        "lat": 50.732168
    },
    "3404": {
        "city": "Neerlanden",
        "lng": 5.0793874624497,
        "lat": 50.7821026
    },
    "3440": {
        "city": "Zoutleeuw",
        "lng": 5.1186447480147,
        "lat": 50.8415653
    },
    "3450": {
        "city": "Grazen",
        "lng": 5.1299277800431,
        "lat": 50.8754117
    },
    "3454": {
        "city": "Rummen",
        "lng": 5.1564917481959,
        "lat": 50.88594765
    },
    "3460": {
        "city": "Bekkevoort",
        "lng": 4.984616971522,
        "lat": 50.9338977
    },
    "3461": {
        "city": "Molenbeek-Wersbeek",
        "lng": 4.9541212,
        "lat": 50.9212106
    },
    "3470": {
        "city": "Sint-Margriete-Houtem",
        "lng": 4.9623805201831,
        "lat": 50.83464645
    },
    "3471": {
        "city": "Hoeleden",
        "lng": 5.0014628020046,
        "lat": 50.8668096
    },
    "3472": {
        "city": "Kersbeek-Miskom",
        "lng": 5.0065116045983,
        "lat": 50.8930932577
    },
    "3473": {
        "city": "Waanrode",
        "lng": 5.0037716328589,
        "lat": 50.9129375
    },
    "3500": {
        "city": "Sint-Lambrechts-Herk",
        "lng": 5.3119462785891,
        "lat": 50.90358435
    },
    "3501": {
        "city": "Wimmertingen",
        "lng": 5.3512906396928,
        "lat": 50.8769276
    },
    "3510": {
        "city": "Spalbeek",
        "lng": 5.2277944313068,
        "lat": 50.9490449
    },
    "3511": {
        "city": "Stokrooie",
        "lng": 5.2747491372719,
        "lat": 50.97085355
    },
    "3512": {
        "city": "Stevoort",
        "lng": 5.2444291944072,
        "lat": 50.91698375
    },
    "3520": {
        "city": "Zonhoven",
        "lng": 5.3677683,
        "lat": 50.9909835
    },
    "3530": {
        "city": "Houthalen-Helchteren",
        "lng": 5.3713044,
        "lat": 51.0281818
    },
    "3540": {
        "city": "Schulen",
        "lng": 5.171672949688,
        "lat": 50.9533364
    },
    "3545": {
        "city": "Zelem",
        "lng": 5.1092670735921,
        "lat": 50.980158
    },
    "3550": {
        "city": "Zolder",
        "lng": 5.3135203,
        "lat": 51.0236553
    },
    "3560": {
        "city": "Meldert",
        "lng": 5.1472099707378,
        "lat": 51.0067479
    },
    "3570": {
        "city": "Alken",
        "lng": 5.3079873,
        "lat": 50.8754731
    },
    "3580": {
        "city": "Beringen",
        "lng": 5.2208090823008,
        "lat": 51.0502026
    },
    "3581": {
        "city": "Beverlo",
        "lng": 5.2443565507181,
        "lat": 51.08973005
    },
    "3582": {
        "city": "Koersel",
        "lng": 5.271159654589,
        "lat": 51.06978945
    },
    "3583": {
        "city": "Paal",
        "lng": 5.1616725572109,
        "lat": 51.04746375
    },
    "3590": {
        "city": "Diepenbeek",
        "lng": 5.4200307,
        "lat": 50.9078485
    },
    "3600": {
        "city": "Genk",
        "lng": 5.5001456,
        "lat": 50.9654864
    },
    "3620": {
        "city": "Veldwezelt",
        "lng": 5.6323869,
        "lat": 50.8655982
    },
    "3621": {
        "city": "Rekem",
        "lng": 5.6626094755366,
        "lat": 50.9284078
    },
    "3630": {
        "city": "Vucht",
        "lng": 5.7134261,
        "lat": 50.9770425
    },
    "3631": {
        "city": "Uikhoven",
        "lng": 5.7199198507341,
        "lat": 50.9264738
    },
    "3640": {
        "city": "Ophoven",
        "lng": 5.7881529659009,
        "lat": 51.13225635
    },
    "3650": {
        "city": "Stokkem",
        "lng": 5.7508381619462,
        "lat": 51.0197939
    },
    "3660": {
        "city": "Opglabbeek",
        "lng": 5.581962,
        "lat": 51.0429949
    },
    "3665": {
        "city": "As",
        "lng": 5.5722025852462,
        "lat": 51.0005396
    },
    "3668": {
        "city": "Niel-Bij-As",
        "lng": 5.6161660037867,
        "lat": 51.0182495
    },
    "3670": {
        "city": "Wijshagen",
        "lng": 5.532541372001,
        "lat": 51.0770409
    },
    "3680": {
        "city": "Opoeteren",
        "lng": 5.6487312543959,
        "lat": 51.05340005
    },
    "3690": {
        "city": "Zutendaal",
        "lng": 5.5725548,
        "lat": 50.9318992
    },
    "3700": {
        "city": "Widooie",
        "lng": 5.409701,
        "lat": 50.7719092
    },
    "3717": {
        "city": "Herstappe",
        "lng": 5.4260923,
        "lat": 50.7273829
    },
    "3720": {
        "city": "Kortessem",
        "lng": 5.3770000287821,
        "lat": 50.86195255
    },
    "3721": {
        "city": "Vliermaalroot",
        "lng": 5.4298574663068,
        "lat": 50.8667966
    },
    "3722": {
        "city": "Wintershoven",
        "lng": 5.4073456316551,
        "lat": 50.85566395
    },
    "3723": {
        "city": "Guigoven",
        "lng": 5.4005632276197,
        "lat": 50.84255235
    },
    "3724": {
        "city": "Vliermaal",
        "lng": 5.4259091735787,
        "lat": 50.8326029
    },
    "3730": {
        "city": "Werm",
        "lng": 5.4804957,
        "lat": 50.8335665
    },
    "3732": {
        "city": "Schalkhoven",
        "lng": 5.4481669278797,
        "lat": 50.8422859
    },
    "3740": {
        "city": "Waltwilder",
        "lng": 5.5464648,
        "lat": 50.8638819
    },
    "3742": {
        "city": "Martenslinde",
        "lng": 5.5340486411054,
        "lat": 50.8523326
    },
    "3746": {
        "city": "Hoelbeek",
        "lng": 5.556142701219,
        "lat": 50.883259
    },
    "3770": {
        "city": "Zichen-Zussen-Bolder",
        "lng": 5.6153404,
        "lat": 50.7943475
    },
    "3790": {
        "city": "Mouland",
        "lng": 5.7148469912943,
        "lat": 50.7551858
    },
    "3791": {
        "city": "Remersdaal",
        "lng": 5.8818776028446,
        "lat": 50.72838165
    },
    "3792": {
        "city": "Fouron-Saint-Pierre",
        "lng": 5.8242427123549,
        "lat": 50.72830265
    },
    "3793": {
        "city": "Teuven",
        "lng": 5.8695304694514,
        "lat": 50.75322225
    },
    "3798": {
        "city": "Fouron-Le-Comte",
        "lng": 5.7719461900567,
        "lat": 50.7611375
    },
    "3800": {
        "city": "Zepperen",
        "lng": 5.2579163290148,
        "lat": 50.840318
    },
    "3803": {
        "city": "Wilderen",
        "lng": 5.1423025876022,
        "lat": 50.81773655
    },
    "3806": {
        "city": "Velm",
        "lng": 5.1322112767812,
        "lat": 50.78000075
    },
    "3830": {
        "city": "Wellen",
        "lng": 5.3421653176727,
        "lat": 50.8434693
    },
    "3831": {
        "city": "Herten",
        "lng": 5.3322359627296,
        "lat": 50.82704785
    },
    "3832": {
        "city": "Ulbeek",
        "lng": 5.2936725006792,
        "lat": 50.84319895
    },
    "3840": {
        "city": "Voort",
        "lng": 4.6797906,
        "lat": 51.1674467
    },
    "3850": {
        "city": "Wijer",
        "lng": 5.2233097,
        "lat": 50.8972323
    },
    "3870": {
        "city": "Veulen",
        "lng": 5.3063809,
        "lat": 50.7633827
    },
    "3890": {
        "city": "Vorsen",
        "lng": 5.1713288748516,
        "lat": 50.705232
    },
    "3891": {
        "city": "Muizen",
        "lng": 5.1781361499823,
        "lat": 50.7614659
    },
    "3900": {
        "city": "Overpelt",
        "lng": 5.422976,
        "lat": 51.2113458
    },
    "3910": {
        "city": "Sint-Huibrechts-Lille",
        "lng": 5.4937001151083,
        "lat": 51.2253075
    },
    "3920": {
        "city": "Lommel",
        "lng": 5.3076895,
        "lat": 51.2305657
    },
    "3930": {
        "city": "Hamont-Achel",
        "lng": 5.5128696,
        "lat": 51.2547636
    },
    "3940": {
        "city": "Hechtel-Eksel",
        "lng": 5.3415643775263,
        "lat": 51.11664635
    },
    "3941": {
        "city": "Eksel",
        "lng": 5.3440439268887,
        "lat": 51.1567865
    },
    "3945": {
        "city": "Oostham",
        "lng": 5.1838556043202,
        "lat": 51.10876505
    },
    "3950": {
        "city": "Reppel",
        "lng": 5.5522997799873,
        "lat": 51.1470494
    },
    "3960": {
        "city": "Tongerlo",
        "lng": 5.6788533966978,
        "lat": 51.1305517
    },
    "3970": {
        "city": "Leopoldsburg",
        "lng": 5.2638924294785,
        "lat": 51.1220584
    },
    "3971": {
        "city": "Heppen",
        "lng": 5.2265355962879,
        "lat": 51.11582725
    },
    "3980": {
        "city": "Tessenderlo",
        "lng": 5.0893974,
        "lat": 51.0681628
    },
    "3990": {
        "city": "Wijchmaal",
        "lng": 5.4147469555164,
        "lat": 51.1272018
    },
    "4000": {
        "city": "Rocourt",
        "lng": 5.547616,
        "lat": 50.678042
    },
    "4020": {
        "city": "Wandre",
        "lng": 5.6596627,
        "lat": 50.670247
    },
    "4030": {
        "city": "Grivegnee",
        "lng": 5.599573,
        "lat": 50.621845
    },
    "4031": {
        "city": "Angleur",
        "lng": 5.5954054,
        "lat": 50.6128164
    },
    "4032": {
        "city": "Chênee",
        "lng": 5.619261,
        "lat": 50.6111024
    },
    "4040": {
        "city": "Herstal",
        "lng": 5.6403906,
        "lat": 50.6701887
    },
    "4041": {
        "city": "Vottem",
        "lng": 5.5846274,
        "lat": 50.672653
    },
    "4042": {
        "city": "Liers",
        "lng": 5.563754,
        "lat": 50.6933806
    },
    "4050": {
        "city": "Chaudfontaine",
        "lng": 5.6469688,
        "lat": 50.5847922
    },
    "4051": {
        "city": "Vaux-Sous-Chèvremont",
        "lng": 5.6335963,
        "lat": 50.6018717
    },
    "4052": {
        "city": "Beaufays",
        "lng": 5.6387759,
        "lat": 50.5589633
    },
    "4053": {
        "city": "Embourg",
        "lng": 5.619201,
        "lat": 50.5893639
    },
    "4100": {
        "city": "Seraing",
        "lng": 5.5083375,
        "lat": 50.5966392
    },
    "4101": {
        "city": "Jemeppe-Sur-Meuse",
        "lng": 5.5049541,
        "lat": 50.6168289
    },
    "4102": {
        "city": "Ougrée",
        "lng": 5.5389943,
        "lat": 50.5992632
    },
    "4120": {
        "city": "Rotheux-Rimière",
        "lng": 5.4811796,
        "lat": 50.5353385
    },
    "4121": {
        "city": "Neuville-En-Condroz",
        "lng": 5.4514318,
        "lat": 50.5520337
    },
    "4122": {
        "city": "Plainevaux",
        "lng": 5.5215011,
        "lat": 50.5446771
    },
    "4130": {
        "city": "Tilff",
        "lng": 5.594232762079,
        "lat": 50.5613241
    },
    "4140": {
        "city": "Sprimont",
        "lng": 5.6466570762919,
        "lat": 50.5065636
    },
    "4141": {
        "city": "Louveigné",
        "lng": 5.7172477995985,
        "lat": 50.5248417
    },
    "4160": {
        "city": "Anthisnes",
        "lng": 5.5225261,
        "lat": 50.481662
    },
    "4161": {
        "city": "Villers-Aux-Tours",
        "lng": 5.5122974,
        "lat": 50.4969412
    },
    "4162": {
        "city": "Hody",
        "lng": 5.5009881,
        "lat": 50.4869156
    },
    "4163": {
        "city": "Tavier",
        "lng": 5.4707571,
        "lat": 50.4960227
    },
    "4170": {
        "city": "Comblain-Au-Pont",
        "lng": 5.5764707268884,
        "lat": 50.474910743586
    },
    "4171": {
        "city": "Poulseur",
        "lng": 5.5827847,
        "lat": 50.5097627
    },
    "4180": {
        "city": "Hamoir",
        "lng": 5.5328465,
        "lat": 50.4253958
    },
    "4181": {
        "city": "Filot",
        "lng": 5.5680501,
        "lat": 50.426751
    },
    "4190": {
        "city": "Xhoris",
        "lng": 5.602069,
        "lat": 50.443983
    },
    "4210": {
        "city": "Oteppe",
        "lng": 5.1270159,
        "lat": 50.5823574
    },
    "4217": {
        "city": "Waret-L'evêque",
        "lng": 5.0671316,
        "lat": 50.5557893
    },
    "4218": {
        "city": "Couthuin",
        "lng": 5.1318708,
        "lat": 50.5331675
    },
    "4219": {
        "city": "Wasseiges",
        "lng": 5.006384,
        "lat": 50.6221762
    },
    "4250": {
        "city": "Lens-Saint-Servais",
        "lng": 5.16091,
        "lat": 50.6637114
    },
    "4252": {
        "city": "Omal",
        "lng": 5.1969427,
        "lat": 50.6554534
    },
    "4253": {
        "city": "Darion",
        "lng": 5.187047,
        "lat": 50.6649171
    },
    "4254": {
        "city": "Ligney",
        "lng": 5.182381,
        "lat": 50.66174
    },
    "4257": {
        "city": "Corswarem",
        "lng": 5.2131541,
        "lat": 50.7095698
    },
    "4260": {
        "city": "Ville-En-Hesbaye",
        "lng": 5.1157512,
        "lat": 50.6182889
    },
    "4261": {
        "city": "Latinne",
        "lng": 5.1632447,
        "lat": 50.6242037
    },
    "4263": {
        "city": "Tourinne",
        "lng": 5.1765528,
        "lat": 50.639549
    },
    "4280": {
        "city": "Wansin",
        "lng": 5.02018,
        "lat": 50.678627
    },
    "4287": {
        "city": "Racour",
        "lng": 5.0290114,
        "lat": 50.7388269
    },
    "4300": {
        "city": "Waremme",
        "lng": 5.2546191,
        "lat": 50.6976875
    },
    "4317": {
        "city": "Viemme",
        "lng": 5.2683121,
        "lat": 50.6482877
    },
    "4340": {
        "city": "Villers-L'evêque",
        "lng": 5.4418773,
        "lat": 50.7028423
    },
    "4342": {
        "city": "Hognoul",
        "lng": 5.4556394,
        "lat": 50.6808099
    },
    "4347": {
        "city": "Voroux-Goreux",
        "lng": 5.4271453,
        "lat": 50.6547034
    },
    "4350": {
        "city": "Remicourt",
        "lng": 5.3267174,
        "lat": 50.6807151
    },
    "4351": {
        "city": "Hodeige",
        "lng": 5.3426579,
        "lat": 50.6960127
    },
    "4357": {
        "city": "Limont",
        "lng": 5.3107335,
        "lat": 50.6600262
    },
    "4360": {
        "city": "Otrange",
        "lng": 5.384458,
        "lat": 50.7370788
    },
    "4367": {
        "city": "Thys",
        "lng": 5.3894005,
        "lat": 50.7225262
    },
    "4400": {
        "city": "Mons-Lez-Liège",
        "lng": 5.4600597,
        "lat": 50.6224546
    },
    "4420": {
        "city": "Tilleur",
        "lng": 5.5307061,
        "lat": 50.620651
    },
    "4430": {
        "city": "Ans",
        "lng": 5.5190612,
        "lat": 50.6624326
    },
    "4431": {
        "city": "Loncin",
        "lng": 5.502732,
        "lat": 50.665153
    },
    "4432": {
        "city": "Xhendremael",
        "lng": 5.4805775,
        "lat": 50.7043671
    },
    "4450": {
        "city": "Slins",
        "lng": 5.5652092,
        "lat": 50.7277246
    },
    "4451": {
        "city": "Voroux-Lez-Liers",
        "lng": 5.552484,
        "lat": 50.687631
    },
    "4452": {
        "city": "Wihogne",
        "lng": 5.5064112,
        "lat": 50.7277451
    },
    "4453": {
        "city": "Villers-Saint-Siméon",
        "lng": 5.5434045,
        "lat": 50.7097826
    },
    "4458": {
        "city": "Fexhe-Slins",
        "lng": 5.5714611,
        "lat": 50.7219179
    },
    "4460": {
        "city": "Velroux",
        "lng": 5.4254194,
        "lat": 50.6436521
    },
    "4470": {
        "city": "Saint-Georges-Sur-Meuse",
        "lng": 5.3579041,
        "lat": 50.6000686
    },
    "4480": {
        "city": "Hermalle-Sous-Huy",
        "lng": 5.3622542,
        "lat": 50.5569911
    },
    "4500": {
        "city": "Tihange",
        "lng": 5.259369,
        "lat": 50.527586
    },
    "4520": {
        "city": "Wanze",
        "lng": 5.2166503,
        "lat": 50.5332587
    },
    "4530": {
        "city": "Warnant-Dreye",
        "lng": 5.2254442,
        "lat": 50.5951052
    },
    "4537": {
        "city": "Verlaine",
        "lng": 5.3184439,
        "lat": 50.6075114
    },
    "4540": {
        "city": "Ombret",
        "lng": 5.3371708,
        "lat": 50.5442809
    },
    "4550": {
        "city": "Yernée-Fraineux",
        "lng": 5.3819538,
        "lat": 50.5284301
    },
    "4557": {
        "city": "Tinlot",
        "lng": 5.3786954,
        "lat": 50.4777419
    },
    "4560": {
        "city": "Terwagne",
        "lng": 5.3491827,
        "lat": 50.4438855
    },
    "4570": {
        "city": "Vyle-Et-Tharoul",
        "lng": 5.2683004,
        "lat": 50.4462845
    },
    "4577": {
        "city": "Vierset-Barse",
        "lng": 5.2948879,
        "lat": 50.4811242
    },
    "4590": {
        "city": "Warzée",
        "lng": 5.427096,
        "lat": 50.4487876
    },
    "4600": {
        "city": "Visé",
        "lng": 5.695536,
        "lat": 50.7336644
    },
    "4601": {
        "city": "Argenteau",
        "lng": 5.686015,
        "lat": 50.6957645
    },
    "4602": {
        "city": "Cheratte",
        "lng": 5.670164,
        "lat": 50.682809
    },
    "4606": {
        "city": "Saint-André",
        "lng": 5.7536486,
        "lat": 50.6953487
    },
    "4607": {
        "city": "Mortroux",
        "lng": 5.7513854,
        "lat": 50.7132408
    },
    "4608": {
        "city": "Warsage",
        "lng": 5.773045637996,
        "lat": 50.73466495
    },
    "4610": {
        "city": "Queue-Du-Bois",
        "lng": 5.6785831,
        "lat": 50.6371513
    },
    "4620": {
        "city": "Fléron",
        "lng": 5.6832219,
        "lat": 50.6168354
    },
    "4621": {
        "city": "Retinne",
        "lng": 5.6978166,
        "lat": 50.6302993
    },
    "4623": {
        "city": "Magnée",
        "lng": 5.6811009,
        "lat": 50.6028765
    },
    "4624": {
        "city": "Romsée",
        "lng": 5.6655488,
        "lat": 50.6068155
    },
    "4630": {
        "city": "Tignée",
        "lng": 5.7042703,
        "lat": 50.6493983
    },
    "4631": {
        "city": "Evegnée",
        "lng": 5.7060994,
        "lat": 50.6418082
    },
    "4632": {
        "city": "Cérexhe-Heuseux",
        "lng": 5.7262388,
        "lat": 50.6508837
    },
    "4633": {
        "city": "Melen",
        "lng": 5.7370469,
        "lat": 50.6460841
    },
    "4650": {
        "city": "Julémont",
        "lng": 5.7718682,
        "lat": 50.6856398
    },
    "4651": {
        "city": "Battice",
        "lng": 5.8194813,
        "lat": 50.6482697
    },
    "4652": {
        "city": "Xhendelesse",
        "lng": 5.7726472,
        "lat": 50.6037018
    },
    "4653": {
        "city": "Bolland",
        "lng": 5.7594413,
        "lat": 50.6614055
    },
    "4654": {
        "city": "Charneux",
        "lng": 5.8048204,
        "lat": 50.669117
    },
    "4670": {
        "city": "Trembleur",
        "lng": 5.7268086,
        "lat": 50.6953295
    },
    "4671": {
        "city": "Saive",
        "lng": 5.6820303,
        "lat": 50.6525478
    },
    "4672": {
        "city": "Saint-Remy",
        "lng": 5.700802,
        "lat": 50.6958409
    },
    "4680": {
        "city": "Oupeye",
        "lng": 5.6450671,
        "lat": 50.7091889
    },
    "4681": {
        "city": "Hermalle-Sous-Argenteau",
        "lng": 5.6808711,
        "lat": 50.710544
    },
    "4682": {
        "city": "Houtain-Saint-Siméon",
        "lng": 5.6104199,
        "lat": 50.7391753
    },
    "4683": {
        "city": "Vivegnis",
        "lng": 5.6527071,
        "lat": 50.697932
    },
    "4684": {
        "city": "Haccourt",
        "lng": 5.6667674,
        "lat": 50.7339784
    },
    "4690": {
        "city": "Wonck",
        "lng": 5.6333621,
        "lat": 50.7677078
    },
    "4700": {
        "city": "Eupen",
        "lng": 6.031452,
        "lat": 50.6306134
    },
    "4701": {
        "city": "Kettenis",
        "lng": 6.0458005,
        "lat": 50.6461317
    },
    "4710": {
        "city": "Lontzen",
        "lng": 6.0073447,
        "lat": 50.6804233
    },
    "4711": {
        "city": "Walhorn",
        "lng": 6.0469422,
        "lat": 50.6750768
    },
    "4720": {
        "city": "La Calamine",
        "lng": 6.013341,
        "lat": 50.7154957
    },
    "4721": {
        "city": "Neu-Moresnet",
        "lng": 6.0240702,
        "lat": 50.7199902
    },
    "4728": {
        "city": "Hergenrath",
        "lng": 6.0316891,
        "lat": 50.7091279
    },
    "4730": {
        "city": "Raeren",
        "lng": 6.1108404,
        "lat": 50.6761305
    },
    "4731": {
        "city": "Eynatten",
        "lng": 6.081697,
        "lat": 50.6935863
    },
    "4750": {
        "city": "Elsenborn",
        "lng": 6.2213827,
        "lat": 50.4573116
    },
    "4760": {
        "city": "Manderfeld",
        "lng": 6.3400555,
        "lat": 50.3310938
    },
    "4761": {
        "city": "Rocherath",
        "lng": 6.3009381,
        "lat": 50.4344078
    },
    "4770": {
        "city": "Meyerode",
        "lng": 6.1884932,
        "lat": 50.3288415
    },
    "4771": {
        "city": "Heppenbach",
        "lng": 6.218691,
        "lat": 50.3631661
    },
    "4780": {
        "city": "Saint-Vith",
        "lng": 6.1258953,
        "lat": 50.2803881
    },
    "4782": {
        "city": "Schoenberg",
        "lng": 6.2642498,
        "lat": 50.2888095
    },
    "4783": {
        "city": "Lommersweiler",
        "lng": 6.1651484,
        "lat": 50.2389236
    },
    "4784": {
        "city": "Crombach",
        "lng": 6.0680547,
        "lat": 50.2591318
    },
    "4790": {
        "city": "Reuland",
        "lng": 6.1362567,
        "lat": 50.1954121
    },
    "4791": {
        "city": "Thommen",
        "lng": 6.0743425,
        "lat": 50.2190586
    },
    "4800": {
        "city": "Verviers",
        "lng": 5.8638544,
        "lat": 50.5932274
    },
    "4801": {
        "city": "Stembert",
        "lng": 5.8952801,
        "lat": 50.593109
    },
    "4802": {
        "city": "Heusy",
        "lng": 5.867539,
        "lat": 50.57804
    },
    "4820": {
        "city": "Dison",
        "lng": 5.854735,
        "lat": 50.611374
    },
    "4821": {
        "city": "Andrimont",
        "lng": 5.8901888,
        "lat": 50.4386821
    },
    "4830": {
        "city": "Limbourg",
        "lng": 5.9402987,
        "lat": 50.6122761
    },
    "4831": {
        "city": "Bilstain",
        "lng": 5.9212234,
        "lat": 50.623535
    },
    "4834": {
        "city": "Goé",
        "lng": 5.9562188,
        "lat": 50.6086202
    },
    "4837": {
        "city": "Membach",
        "lng": 5.9953656,
        "lat": 50.6193792
    },
    "4840": {
        "city": "Welkenraedt",
        "lng": 5.9723396,
        "lat": 50.6627086
    },
    "4841": {
        "city": "Henri-Chapelle",
        "lng": 5.9318018,
        "lat": 50.6768234
    },
    "4845": {
        "city": "Sart-Lez-Spa",
        "lng": 5.933482,
        "lat": 50.51744
    },
    "4850": {
        "city": "Plombières",
        "lng": 5.9590725,
        "lat": 50.7374801
    },
    "4851": {
        "city": "Sippenaeken",
        "lng": 5.9336285,
        "lat": 50.7509012
    },
    "4852": {
        "city": "Hombourg",
        "lng": 5.9207511,
        "lat": 50.723243
    },
    "4860": {
        "city": "Wegnez",
        "lng": 5.8175559,
        "lat": 50.5789617
    },
    "4861": {
        "city": "Soiron",
        "lng": 5.7906072,
        "lat": 50.5921673
    },
    "4870": {
        "city": "Trooz",
        "lng": 5.6883726,
        "lat": 50.5728102
    },
    "4877": {
        "city": "Olne",
        "lng": 5.7479948,
        "lat": 50.5901199
    },
    "4880": {
        "city": "Aubel",
        "lng": 5.8585553,
        "lat": 50.7041498
    },
    "4890": {
        "city": "Thimister-Clermont",
        "lng": 5.8634486463407,
        "lat": 50.66298735
    },
    "4900": {
        "city": "Spa",
        "lng": 5.8626233,
        "lat": 50.4920838
    },
    "4910": {
        "city": "Theux",
        "lng": 5.8198955843753,
        "lat": 50.52586075
    },
    "4920": {
        "city": "Louveigné",
        "lng": 5.7172477995985,
        "lat": 50.5248417
    },
    "4950": {
        "city": "Waimes",
        "lng": 6.1117543,
        "lat": 50.4149134
    },
    "4960": {
        "city": "Malmedy",
        "lng": 6.0266001,
        "lat": 50.4239904
    },
    "4970": {
        "city": "Stavelot",
        "lng": 5.9308362,
        "lat": 50.3940846
    },
    "4980": {
        "city": "Wanne",
        "lng": 5.9213974,
        "lat": 50.3557319
    },
    "4983": {
        "city": "Basse-Bodeux",
        "lng": 5.826789,
        "lat": 50.3579736
    },
    "4987": {
        "city": "Stoumont",
        "lng": 5.80836,
        "lat": 50.4069504
    },
    "4990": {
        "city": "Lierneux",
        "lng": 5.7920929,
        "lat": 50.28574
    },
    "5000": {
        "city": "Namur",
        "lng": 4.849314651989,
        "lat": 50.45620385
    },
    "5001": {
        "city": "Belgrade",
        "lng": 4.8222958522639,
        "lat": 50.46923485
    },
    "5002": {
        "city": "Saint-Servais",
        "lng": 4.8351266178881,
        "lat": 50.48141855
    },
    "5003": {
        "city": "Saint-Marc",
        "lng": 4.8469587132153,
        "lat": 50.4948666
    },
    "5004": {
        "city": "Bouge",
        "lng": 4.891664450549,
        "lat": 50.47887385
    },
    "5020": {
        "city": "Vedrin",
        "lng": 4.8742389,
        "lat": 50.5019599
    },
    "5021": {
        "city": "Boninne",
        "lng": 4.9291903523068,
        "lat": 50.49239555
    },
    "5022": {
        "city": "Cognelée",
        "lng": 4.9127293838106,
        "lat": 50.5171876
    },
    "5024": {
        "city": "Marche-Les-Dames",
        "lng": 4.9615056,
        "lat": 50.4864453
    },
    "5030": {
        "city": "Sauvenière",
        "lng": 4.7248074,
        "lat": 50.5810646
    },
    "5031": {
        "city": "Grand-Leez",
        "lng": 4.7609593378472,
        "lat": 50.57820735
    },
    "5032": {
        "city": "Mazy",
        "lng": 4.6745108,
        "lat": 50.5127674
    },
    "5060": {
        "city": "Velaine-Sur-Sambre",
        "lng": 4.60725,
        "lat": 50.4713313
    },
    "5070": {
        "city": "Vitrival",
        "lng": 4.6558828,
        "lat": 50.3941596
    },
    "5080": {
        "city": "Warisoulx",
        "lng": 4.8587823219021,
        "lat": 50.5348173
    },
    "5081": {
        "city": "Meux",
        "lng": 4.7986774536609,
        "lat": 50.552563
    },
    "5100": {
        "city": "Wierde",
        "lng": 4.9497445929374,
        "lat": 50.4286275
    },
    "5101": {
        "city": "Loyers",
        "lng": 4.9409795174479,
        "lat": 50.4580989
    },
    "5140": {
        "city": "Tongrinne",
        "lng": 4.623887,
        "lat": 50.5157258
    },
    "5150": {
        "city": "Soye",
        "lng": 4.730789,
        "lat": 50.4494828
    },
    "5170": {
        "city": "Rivière",
        "lng": 4.8724268,
        "lat": 50.3580729
    },
    "5190": {
        "city": "Spy",
        "lng": 4.7027047,
        "lat": 50.4811696
    },
    "5300": {
        "city": "Vezin",
        "lng": 5.0114611,
        "lat": 50.4966018
    },
    "5310": {
        "city": "Waret-La-Chaussée",
        "lng": 4.9217571,
        "lat": 50.5417091
    },
    "5330": {
        "city": "Sart-Bernard",
        "lng": 4.9506941,
        "lat": 50.405155
    },
    "5332": {
        "city": "Crupet",
        "lng": 4.9581149,
        "lat": 50.3468626
    },
    "5333": {
        "city": "Sorinne-La-Longue",
        "lng": 5.0294375,
        "lat": 50.3896858
    },
    "5334": {
        "city": "Florée",
        "lng": 5.0704373,
        "lat": 50.3730757
    },
    "5336": {
        "city": "Courrière",
        "lng": 4.9845433,
        "lat": 50.378301
    },
    "5340": {
        "city": "Sorée",
        "lng": 5.1258806,
        "lat": 50.4001817
    },
    "5350": {
        "city": "Ohey",
        "lng": 5.1238439,
        "lat": 50.4359066
    },
    "5351": {
        "city": "Haillot",
        "lng": 5.1491871,
        "lat": 50.4405961
    },
    "5353": {
        "city": "Goesnes",
        "lng": 5.2217845,
        "lat": 50.440101
    },
    "5354": {
        "city": "Jallet",
        "lng": 5.1821601,
        "lat": 50.4432621
    },
    "5360": {
        "city": "Natoye",
        "lng": 5.0562173,
        "lat": 50.3413559
    },
    "5361": {
        "city": "Scy",
        "lng": 5.2094413,
        "lat": 50.3079186
    },
    "5362": {
        "city": "Achet",
        "lng": 5.1751963,
        "lat": 50.3334777
    },
    "5363": {
        "city": "Emptinne",
        "lng": 5.1212547,
        "lat": 50.3253905
    },
    "5364": {
        "city": "Schaltin",
        "lng": 5.1237159,
        "lat": 50.3579006
    },
    "5370": {
        "city": "Verlée",
        "lng": 5.2795649,
        "lat": 50.3675402
    },
    "5372": {
        "city": "Méan",
        "lng": 5.333856,
        "lat": 50.3619241
    },
    "5374": {
        "city": "Maffe",
        "lng": 5.3125869,
        "lat": 50.3533462
    },
    "5376": {
        "city": "Miécret",
        "lng": 5.24941,
        "lat": 50.365689
    },
    "5377": {
        "city": "Waillet",
        "lng": 5.304196,
        "lat": 50.260584
    },
    "5380": {
        "city": "Tillier",
        "lng": 4.946342,
        "lat": 50.544287
    },
    "5500": {
        "city": "Furfooz",
        "lng": 4.9584822,
        "lat": 50.223335
    },
    "5501": {
        "city": "Lisogne",
        "lng": 4.9715412,
        "lat": 50.2814293
    },
    "5502": {
        "city": "Thynes",
        "lng": 4.9882689,
        "lat": 50.2798224
    },
    "5503": {
        "city": "Sorinnes",
        "lng": 4.982409,
        "lat": 50.260159
    },
    "5504": {
        "city": "Foy-Notre-Dame",
        "lng": 4.9897127,
        "lat": 50.2471757
    },
    "5520": {
        "city": "Onhaye",
        "lng": 4.840864,
        "lat": 50.2435657
    },
    "5521": {
        "city": "Serville",
        "lng": 4.7806526,
        "lat": 50.2500754
    },
    "5522": {
        "city": "Falaen",
        "lng": 4.793357,
        "lat": 50.2782156
    },
    "5523": {
        "city": "Weillen",
        "lng": 4.8245344,
        "lat": 50.2596445
    },
    "5524": {
        "city": "Gerin",
        "lng": 4.8158102,
        "lat": 50.2452911
    },
    "5530": {
        "city": "Yvoir",
        "lng": 4.8806618,
        "lat": 50.3264425
    },
    "5537": {
        "city": "Warnant",
        "lng": 4.836084,
        "lat": 50.3238206
    },
    "5540": {
        "city": "Waulsort",
        "lng": 4.8632452,
        "lat": 50.2032886
    },
    "5541": {
        "city": "Hastière-Par-Delà",
        "lng": 4.8294854,
        "lat": 50.2150767
    },
    "5542": {
        "city": "Blaimont",
        "lng": 4.8352693,
        "lat": 50.192216
    },
    "5543": {
        "city": "Heer",
        "lng": 4.831747,
        "lat": 50.161698
    },
    "5544": {
        "city": "Agimont",
        "lng": 4.7942801,
        "lat": 50.16421
    },
    "5550": {
        "city": "Vresse-Sur-Semois",
        "lng": 4.9340633,
        "lat": 49.8729769
    },
    "5555": {
        "city": "Petit-Fays",
        "lng": 4.9675442,
        "lat": 49.9015726
    },
    "5560": {
        "city": "Mesnil-Saint-Blaise",
        "lng": 4.8854633,
        "lat": 50.1671763
    },
    "5561": {
        "city": "Celles",
        "lng": 5.0058339,
        "lat": 50.2312617
    },
    "5562": {
        "city": "Custinne",
        "lng": 5.0484175,
        "lat": 50.2117661
    },
    "5563": {
        "city": "Hour",
        "lng": 5.0372408,
        "lat": 50.1613066
    },
    "5564": {
        "city": "Wanlin",
        "lng": 5.061512,
        "lat": 50.1593381
    },
    "5570": {
        "city": "Winenne",
        "lng": 4.8930998,
        "lat": 50.0980233
    },
    "5571": {
        "city": "Wiesme",
        "lng": 4.9767431,
        "lat": 50.1487792
    },
    "5572": {
        "city": "Focant",
        "lng": 5.0408552,
        "lat": 50.1314538
    },
    "5573": {
        "city": "Martouzin-Neuville",
        "lng": 5.003949,
        "lat": 50.1176141
    },
    "5574": {
        "city": "Pondrôme",
        "lng": 5.008842,
        "lat": 50.099609
    },
    "5575": {
        "city": "Willerzie",
        "lng": 4.8475671,
        "lat": 49.9874142
    },
    "5576": {
        "city": "Froidfontaine",
        "lng": 5.000634,
        "lat": 50.0604028
    },
    "5580": {
        "city": "Wavreille",
        "lng": 5.2419236738324,
        "lat": 50.11639205
    },
    "5590": {
        "city": "Sovet",
        "lng": 5.0349178,
        "lat": 50.296303
    },
    "5600": {
        "city": "Vodecée",
        "lng": 4.5920788,
        "lat": 50.1972001
    },
    "5620": {
        "city": "Saint-Aubin",
        "lng": 4.5778492,
        "lat": 50.2469253
    },
    "5621": {
        "city": "Morialmé",
        "lng": 4.5634203,
        "lat": 50.2776442
    },
    "5630": {
        "city": "Villers-Deux-Eglises",
        "lng": 4.4827391,
        "lat": 50.189702
    },
    "5640": {
        "city": "Saint-Gérard",
        "lng": 4.7395306,
        "lat": 50.3463414
    },
    "5641": {
        "city": "Furnaux",
        "lng": 4.7055271,
        "lat": 50.3080016
    },
    "5644": {
        "city": "Ermeton-Sur-Biert",
        "lng": 4.7197934,
        "lat": 50.2975439
    },
    "5646": {
        "city": "Stave",
        "lng": 4.6590441,
        "lat": 50.2828212
    },
    "5650": {
        "city": "Yves-Gomezée",
        "lng": 4.4947935,
        "lat": 50.2392649
    },
    "5651": {
        "city": "Thy-Le-Château",
        "lng": 4.4278716,
        "lat": 50.2827004
    },
    "5660": {
        "city": "Presgaux",
        "lng": 4.4206168,
        "lat": 50.0247898
    },
    "5670": {
        "city": "Viroinval",
        "lng": 4.6270287,
        "lat": 50.0516361
    },
    "5680": {
        "city": "Vodelée",
        "lng": 4.7323157,
        "lat": 50.1702393
    },
    "6000": {
        "city": "Charleroi",
        "lng": 4.4491649999234,
        "lat": 50.41571025
    },
    "6001": {
        "city": "Marcinelle",
        "lng": 4.4442531,
        "lat": 50.3977245
    },
    "6010": {
        "city": "Couillet",
        "lng": 4.468631,
        "lat": 50.391219
    },
    "6020": {
        "city": "Dampremy",
        "lng": 4.4322464,
        "lat": 50.4186181
    },
    "6030": {
        "city": "Marchienne-Au-Pont",
        "lng": 4.3960065,
        "lat": 50.4067102
    },
    "6031": {
        "city": "Monceau-Sur-Sambre",
        "lng": 4.382402,
        "lat": 50.4170168
    },
    "6032": {
        "city": "Mont-Sur-Marchienne",
        "lng": 4.4046365,
        "lat": 50.3902046
    },
    "6040": {
        "city": "Jumet",
        "lng": 4.4360232749854,
        "lat": 50.44466065
    },
    "6041": {
        "city": "Gosselies",
        "lng": 4.4301757,
        "lat": 50.4653846
    },
    "6042": {
        "city": "Lodelinsart",
        "lng": 4.4489421,
        "lat": 50.431853
    },
    "6043": {
        "city": "Ransart",
        "lng": 4.481573078145,
        "lat": 50.45615655
    },
    "6044": {
        "city": "Roux",
        "lng": 4.3907758274107,
        "lat": 50.4415002
    },
    "6060": {
        "city": "Gilly",
        "lng": 4.485649013438,
        "lat": 50.4269705
    },
    "6061": {
        "city": "Montignies-Sur-Sambre",
        "lng": 4.4729234863084,
        "lat": 50.4109216
    },
    "6110": {
        "city": "Montigny-Le-Tilleul",
        "lng": 4.3602314806535,
        "lat": 50.369072045553
    },
    "6111": {
        "city": "Landelies",
        "lng": 4.3496404,
        "lat": 50.377822
    },
    "6120": {
        "city": "Nalinnes",
        "lng": 4.4466922,
        "lat": 50.3249486
    },
    "6140": {
        "city": "Fontaine-L'evêque",
        "lng": 4.3239637925238,
        "lat": 50.411224661019
    },
    "6141": {
        "city": "Forchies-La-Marche",
        "lng": 4.3198191,
        "lat": 50.4383794
    },
    "6142": {
        "city": "Leernes",
        "lng": 4.3307851,
        "lat": 50.3974398
    },
    "6150": {
        "city": "Anderlues",
        "lng": 4.2696102,
        "lat": 50.4079969
    },
    "6180": {
        "city": "Courcelles",
        "lng": 4.3763406,
        "lat": 50.4601576
    },
    "6181": {
        "city": "Gouy-Lez-Piéton",
        "lng": 4.3287132,
        "lat": 50.4875628
    },
    "6182": {
        "city": "Souvret",
        "lng": 4.350827,
        "lat": 50.450999
    },
    "6183": {
        "city": "Trazegnies",
        "lng": 4.3317415,
        "lat": 50.4665295
    },
    "6200": {
        "city": "Châtelineau",
        "lng": 4.5179328,
        "lat": 50.4155938
    },
    "6210": {
        "city": "Wayaux",
        "lng": 4.4723314,
        "lat": 50.4896309
    },
    "6211": {
        "city": "Mellet",
        "lng": 4.4782005997401,
        "lat": 50.50462075
    },
    "6220": {
        "city": "Wangenies",
        "lng": 4.519112,
        "lat": 50.4776689
    },
    "6221": {
        "city": "Saint-Amand",
        "lng": 4.5319238043004,
        "lat": 50.5111679
    },
    "6222": {
        "city": "Brye",
        "lng": 4.561356496071,
        "lat": 50.53007005
    },
    "6223": {
        "city": "Wagnelée",
        "lng": 4.5273110200086,
        "lat": 50.52262195
    },
    "6224": {
        "city": "Wanfercée-Baulet",
        "lng": 4.5816274059151,
        "lat": 50.47584335
    },
    "6230": {
        "city": "Viesville",
        "lng": 4.4030299776693,
        "lat": 50.4906258
    },
    "6238": {
        "city": "Luttre",
        "lng": 4.3888817117527,
        "lat": 50.51456265
    },
    "6240": {
        "city": "Pironchamps",
        "lng": 4.526056,
        "lat": 50.4285932
    },
    "6250": {
        "city": "Roselies",
        "lng": 4.5728849,
        "lat": 50.4289142
    },
    "6280": {
        "city": "Villers-Poterie",
        "lng": 4.547498,
        "lat": 50.3513008
    },
    "6440": {
        "city": "Vergnies",
        "lng": 4.3059105,
        "lat": 50.198614
    },
    "6441": {
        "city": "Erpion",
        "lng": 4.3512321,
        "lat": 50.2118893
    },
    "6460": {
        "city": "Villers-La-Tour",
        "lng": 4.26287,
        "lat": 50.035369
    },
    "6461": {
        "city": "Virelles",
        "lng": 4.3329805,
        "lat": 50.0648008
    },
    "6462": {
        "city": "Vaulx-Lez-Chimay",
        "lng": 4.363579,
        "lat": 50.061113
    },
    "6463": {
        "city": "Lompret",
        "lng": 4.3790041,
        "lat": 50.0642146
    },
    "6464": {
        "city": "Rièzes",
        "lng": 4.368311,
        "lat": 49.960822
    },
    "6470": {
        "city": "Sivry-Rance",
        "lng": 4.1899982,
        "lat": 50.1640023
    },
    "6500": {
        "city": "Thirimont",
        "lng": 4.2364418,
        "lat": 50.2608137
    },
    "6511": {
        "city": "Strée",
        "lng": 4.2980462,
        "lat": 50.2766332
    },
    "6530": {
        "city": "Thuin",
        "lng": 4.2870475,
        "lat": 50.3397445
    },
    "6531": {
        "city": "Biesme-Sous-Thuin",
        "lng": 4.3079897,
        "lat": 50.320724
    },
    "6532": {
        "city": "Ragnies",
        "lng": 4.2837674,
        "lat": 50.3081977
    },
    "6533": {
        "city": "Biercée",
        "lng": 4.2591396,
        "lat": 50.3250862
    },
    "6534": {
        "city": "Gozée",
        "lng": 4.3515595,
        "lat": 50.3332279
    },
    "6536": {
        "city": "Thuillies",
        "lng": 4.329007,
        "lat": 50.2947304
    },
    "6540": {
        "city": "Mont-Sainte-Geneviève",
        "lng": 4.2377392,
        "lat": 50.3766211
    },
    "6542": {
        "city": "Sars-La-Buissière",
        "lng": 4.209803,
        "lat": 50.3352549
    },
    "6543": {
        "city": "Bienne-Lez-Happart",
        "lng": 4.2155807,
        "lat": 50.3512087
    },
    "6560": {
        "city": "Solre-Sur-Sambre",
        "lng": 4.1558267,
        "lat": 50.3067709
    },
    "6567": {
        "city": "Merbes-Sainte-Marie",
        "lng": 4.1711042,
        "lat": 50.3552041
    },
    "6590": {
        "city": "Momignies",
        "lng": 4.1649981,
        "lat": 50.0286317
    },
    "6591": {
        "city": "Macon",
        "lng": 4.2096331,
        "lat": 50.052122
    },
    "6592": {
        "city": "Monceau-Imbrechies",
        "lng": 4.224118,
        "lat": 50.036452
    },
    "6593": {
        "city": "Macquenoise",
        "lng": 4.1802891,
        "lat": 49.9755399
    },
    "6594": {
        "city": "Beauwelz",
        "lng": 4.156972,
        "lat": 50.015365
    },
    "6596": {
        "city": "Seloignes",
        "lng": 4.255615,
        "lat": 50.016087
    },
    "6600": {
        "city": "Wardin",
        "lng": 5.7857948,
        "lat": 49.9902268
    },
    "6630": {
        "city": "Martelange",
        "lng": 5.7376366,
        "lat": 49.8313323
    },
    "6637": {
        "city": "Tintange",
        "lng": 5.7518438,
        "lat": 49.878638
    },
    "6640": {
        "city": "Vaux-Sur-Sûre",
        "lng": 5.5908285596978,
        "lat": 49.908755829225
    },
    "6642": {
        "city": "Juseret",
        "lng": 5.5493342,
        "lat": 49.8805193
    },
    "6660": {
        "city": "Nadrin",
        "lng": 5.6807442,
        "lat": 50.1611829
    },
    "6661": {
        "city": "Tailles",
        "lng": 5.7447558,
        "lat": 50.2272012
    },
    "6662": {
        "city": "Tavigny",
        "lng": 5.837773,
        "lat": 50.1081487
    },
    "6663": {
        "city": "Mabompré",
        "lng": 5.7384527,
        "lat": 50.098929
    },
    "6666": {
        "city": "Wibrin",
        "lng": 5.7156009,
        "lat": 50.1661182
    },
    "6670": {
        "city": "Limerlé",
        "lng": 5.9393768987183,
        "lat": 50.1608553
    },
    "6671": {
        "city": "Bovigny",
        "lng": 5.9182421,
        "lat": 50.2244199
    },
    "6672": {
        "city": "Beho",
        "lng": 5.9972692,
        "lat": 50.220365
    },
    "6673": {
        "city": "Cherain",
        "lng": 5.8646609,
        "lat": 50.1806741
    },
    "6674": {
        "city": "Montleban",
        "lng": 5.8288862,
        "lat": 50.1876021
    },
    "6680": {
        "city": "Tillet",
        "lng": 5.5297763,
        "lat": 50.0097939
    },
    "6681": {
        "city": "Lavacherie",
        "lng": 5.5136455,
        "lat": 50.052317
    },
    "6686": {
        "city": "Flamierge",
        "lng": 5.6038758,
        "lat": 50.0333519
    },
    "6687": {
        "city": "Bertogne",
        "lng": 5.6675577,
        "lat": 50.0842908
    },
    "6688": {
        "city": "Longchamps",
        "lng": 5.6892466,
        "lat": 50.0535428
    },
    "6690": {
        "city": "Vielsalm",
        "lng": 5.9170187,
        "lat": 50.2883685
    },
    "6692": {
        "city": "Petit-Thier",
        "lng": 5.9672766,
        "lat": 50.3074461
    },
    "6698": {
        "city": "Grand-Halleux",
        "lng": 5.9072517,
        "lat": 50.3262753
    },
    "6700": {
        "city": "Toernich",
        "lng": 5.7795299,
        "lat": 49.6512359
    },
    "6704": {
        "city": "Guirsch",
        "lng": 5.853381,
        "lat": 49.7193575
    },
    "6706": {
        "city": "Autelbas",
        "lng": 5.8675666,
        "lat": 49.6499559
    },
    "6717": {
        "city": "Tontelange",
        "lng": 5.8099377,
        "lat": 49.7266352
    },
    "6720": {
        "city": "Hachy",
        "lng": 5.6805003,
        "lat": 49.7015507
    },
    "6721": {
        "city": "Anlier",
        "lng": 5.620414,
        "lat": 49.772082
    },
    "6723": {
        "city": "Habay-La-Vieille",
        "lng": 5.6225107,
        "lat": 49.7228424
    },
    "6724": {
        "city": "Rulles",
        "lng": 5.558116,
        "lat": 49.7181041
    },
    "6730": {
        "city": "Tintigny",
        "lng": 5.5185152,
        "lat": 49.6820986
    },
    "6740": {
        "city": "Villers-Sur-Semois",
        "lng": 5.5614663,
        "lat": 49.6987456
    },
    "6741": {
        "city": "Vance",
        "lng": 5.6698138,
        "lat": 49.6701655
    },
    "6742": {
        "city": "Chantemelle",
        "lng": 5.6551334,
        "lat": 49.6535106
    },
    "6743": {
        "city": "Buzenol",
        "lng": 5.5942184,
        "lat": 49.6478969
    },
    "6747": {
        "city": "Saint-Léger",
        "lng": 5.6569569,
        "lat": 49.6134362
    },
    "6750": {
        "city": "Signeulx",
        "lng": 5.6403955,
        "lat": 49.5528606
    },
    "6760": {
        "city": "Virton",
        "lng": 5.5329559,
        "lat": 49.5677263
    },
    "6761": {
        "city": "Latour",
        "lng": 5.5704642,
        "lat": 49.5581925
    },
    "6762": {
        "city": "Saint-Mard",
        "lng": 5.5284511,
        "lat": 49.5577562
    },
    "6767": {
        "city": "Torgny",
        "lng": 5.4735035,
        "lat": 49.5085018
    },
    "6769": {
        "city": "Villers-La-Loue",
        "lng": 5.481043,
        "lat": 49.5749479
    },
    "6780": {
        "city": "Wolkrange",
        "lng": 5.7983045,
        "lat": 49.6350021
    },
    "6781": {
        "city": "Sélange",
        "lng": 5.848409,
        "lat": 49.6081105
    },
    "6782": {
        "city": "Habergy",
        "lng": 5.7608307,
        "lat": 49.6153377
    },
    "6790": {
        "city": "Aubange",
        "lng": 5.804352,
        "lat": 49.5675296
    },
    "6791": {
        "city": "Athus",
        "lng": 5.8317661,
        "lat": 49.5642065
    },
    "6792": {
        "city": "Rachecourt",
        "lng": 5.7248143,
        "lat": 49.5903125
    },
    "6800": {
        "city": "Sainte-Marie-Chevigny",
        "lng": 5.4578106,
        "lat": 49.9235741
    },
    "6810": {
        "city": "Jamoigne",
        "lng": 5.420477,
        "lat": 49.6958089
    },
    "6811": {
        "city": "Les Bulles",
        "lng": 5.4263273,
        "lat": 49.7031011
    },
    "6812": {
        "city": "Suxy",
        "lng": 5.4005563,
        "lat": 49.7626877
    },
    "6813": {
        "city": "Termes",
        "lng": 5.4579753,
        "lat": 49.7071328
    },
    "6820": {
        "city": "Sainte-Cécile",
        "lng": 5.2429556,
        "lat": 49.7293745
    },
    "6821": {
        "city": "Lacuisine",
        "lng": 5.318262,
        "lat": 49.7170106
    },
    "6823": {
        "city": "Villers-Devant-Orval",
        "lng": 5.331466,
        "lat": 49.6185771
    },
    "6824": {
        "city": "Chassepierre",
        "lng": 5.2621817,
        "lat": 49.7076905
    },
    "6830": {
        "city": "Rochehaut",
        "lng": 5.0070138,
        "lat": 49.8404522
    },
    "6831": {
        "city": "Noirfontaine",
        "lng": 5.412251,
        "lat": 50.6175774
    },
    "6832": {
        "city": "Sensenruth",
        "lng": 5.0738804,
        "lat": 49.8254037
    },
    "6833": {
        "city": "Vivy",
        "lng": 5.0388784,
        "lat": 49.8675973
    },
    "6834": {
        "city": "Bellevaux",
        "lng": 6.0129575,
        "lat": 50.3912772
    },
    "6836": {
        "city": "Dohan",
        "lng": 5.1418578,
        "lat": 49.7973741
    },
    "6838": {
        "city": "Corbion",
        "lng": 5.0065337,
        "lat": 49.7976297
    },
    "6840": {
        "city": "Tournay",
        "lng": 5.3969928,
        "lat": 49.8543387
    },
    "6850": {
        "city": "Paliseul",
        "lng": 5.1349041,
        "lat": 49.9035269
    },
    "6851": {
        "city": "Nollevaux",
        "lng": 5.1220764,
        "lat": 49.8710591
    },
    "6852": {
        "city": "Opont",
        "lng": 5.1201252,
        "lat": 49.9348514
    },
    "6853": {
        "city": "Framont",
        "lng": 5.1601932,
        "lat": 49.9185629
    },
    "6856": {
        "city": "Fays-Les-Veneurs",
        "lng": 5.1607144,
        "lat": 49.8662058
    },
    "6860": {
        "city": "Witry",
        "lng": 5.6138516,
        "lat": 49.8589203
    },
    "6870": {
        "city": "Vesqueville",
        "lng": 5.3968709,
        "lat": 50.0058391
    },
    "6880": {
        "city": "Orgeo",
        "lng": 5.3022804,
        "lat": 49.8343079
    },
    "6887": {
        "city": "Straimont",
        "lng": 5.3811714,
        "lat": 49.7961667
    },
    "6890": {
        "city": "Villance",
        "lng": 5.2221196,
        "lat": 49.9709626
    },
    "6900": {
        "city": "Waha",
        "lng": 5.3441742,
        "lat": 50.2119666
    },
    "6920": {
        "city": "Wellin",
        "lng": 5.1146708,
        "lat": 50.0822967
    },
    "6921": {
        "city": "Chanly",
        "lng": 5.1559991,
        "lat": 50.0786533
    },
    "6922": {
        "city": "Halma",
        "lng": 5.1374206,
        "lat": 50.0754135
    },
    "6924": {
        "city": "Lomprez",
        "lng": 5.092143,
        "lat": 50.0762474
    },
    "6927": {
        "city": "Tellin",
        "lng": 5.216837,
        "lat": 50.081019
    },
    "6929": {
        "city": "Porcheresse",
        "lng": 5.0866787,
        "lat": 49.978801
    },
    "6940": {
        "city": "Wéris",
        "lng": 5.5307553,
        "lat": 50.3266395
    },
    "6941": {
        "city": "Villers-Sainte-Gertrude",
        "lng": 5.5764092,
        "lat": 50.3619168
    },
    "6950": {
        "city": "Nassogne",
        "lng": 5.3455462,
        "lat": 50.1294031
    },
    "6951": {
        "city": "Bande",
        "lng": 5.4154822,
        "lat": 50.1665822
    },
    "6952": {
        "city": "Grune",
        "lng": 5.3828952,
        "lat": 50.1549918
    },
    "6953": {
        "city": "Masbourg",
        "lng": 5.3136921,
        "lat": 50.1143521
    },
    "6960": {
        "city": "Vaux-Chavanne",
        "lng": 5.6968767,
        "lat": 50.3021516
    },
    "6970": {
        "city": "Tenneville",
        "lng": 5.5242133,
        "lat": 50.091248
    },
    "6971": {
        "city": "Champlon",
        "lng": 5.5034047,
        "lat": 50.1077503
    },
    "6972": {
        "city": "Erneuville",
        "lng": 5.5507905,
        "lat": 50.1137831
    },
    "6980": {
        "city": "La Roche-En-Ardenne",
        "lng": 5.5701521878995,
        "lat": 50.182916023074
    },
    "6982": {
        "city": "Samrée",
        "lng": 5.6394828,
        "lat": 50.209256
    },
    "6983": {
        "city": "Ortho",
        "lng": 5.6138065,
        "lat": 50.1249111
    },
    "6984": {
        "city": "Hives",
        "lng": 5.5783344,
        "lat": 50.1506704
    },
    "6986": {
        "city": "Halleux",
        "lng": 5.5020384,
        "lat": 50.1717133
    },
    "6987": {
        "city": "Rendeux",
        "lng": 5.5043243,
        "lat": 50.2330466
    },
    "6990": {
        "city": "Marenne",
        "lng": 5.4165812,
        "lat": 50.2418351
    },
    "6997": {
        "city": "Soy",
        "lng": 5.5100929,
        "lat": 50.285577
    },
    "7000": {
        "city": "Mons",
        "lng": 3.951958,
        "lat": 50.4549568
    },
    "7011": {
        "city": "Ghlin",
        "lng": 3.903746,
        "lat": 50.4760502
    },
    "7012": {
        "city": "Jemappes",
        "lng": 3.8894392,
        "lat": 50.448422
    },
    "7020": {
        "city": "Nimy",
        "lng": 3.9545894,
        "lat": 50.4759358
    },
    "7021": {
        "city": "Havre",
        "lng": 4.0453329,
        "lat": 50.4643434
    },
    "7022": {
        "city": "Nouvelles",
        "lng": 3.9689185,
        "lat": 50.4100798
    },
    "7024": {
        "city": "Ciply",
        "lng": 3.9438349,
        "lat": 50.4193042
    },
    "7030": {
        "city": "Saint-Symphorien",
        "lng": 4.012574,
        "lat": 50.4366253
    },
    "7031": {
        "city": "Villers-Saint-Ghislain",
        "lng": 4.0389071,
        "lat": 50.4312421
    },
    "7032": {
        "city": "Spiennes",
        "lng": 3.9868957,
        "lat": 50.4254505
    },
    "7033": {
        "city": "Cuesmes",
        "lng": 3.9206652,
        "lat": 50.436171
    },
    "7034": {
        "city": "Saint-Denis",
        "lng": 4.0181787,
        "lat": 50.4920472
    },
    "7040": {
        "city": "Quévy-Le-Petit",
        "lng": 3.93752,
        "lat": 50.367996
    },
    "7041": {
        "city": "Havay",
        "lng": 3.9841693,
        "lat": 50.3611541
    },
    "7050": {
        "city": "Masnuy-Saint-Pierre",
        "lng": 3.9598418,
        "lat": 50.5369939
    },
    "7060": {
        "city": "Soignies",
        "lng": 4.0732968,
        "lat": 50.5775309
    },
    "7061": {
        "city": "Thieusies",
        "lng": 4.0489552,
        "lat": 50.5151015
    },
    "7062": {
        "city": "Naast",
        "lng": 4.1011662,
        "lat": 50.5536883
    },
    "7063": {
        "city": "Neufvilles",
        "lng": 4.0029098,
        "lat": 50.5683075
    },
    "7070": {
        "city": "Ville-Sur-Haine",
        "lng": 4.0655313,
        "lat": 50.4767906
    },
    "7080": {
        "city": "Sars-La-Bruyère",
        "lng": 3.8764088,
        "lat": 50.3719019
    },
    "7090": {
        "city": "Steenkerque",
        "lng": 4.0698505,
        "lat": 50.6432692
    },
    "7100": {
        "city": "Trivières",
        "lng": 4.1475857,
        "lat": 50.4517378
    },
    "7110": {
        "city": "Strépy-Bracquegnies",
        "lng": 4.1207031,
        "lat": 50.474474
    },
    "7120": {
        "city": "Vellereille-Les-Brayeux",
        "lng": 4.1507915,
        "lat": 50.3790081
    },
    "7130": {
        "city": "Bray",
        "lng": 4.1024947,
        "lat": 50.4299906
    },
    "7131": {
        "city": "Waudrez",
        "lng": 4.150981,
        "lat": 50.4137808
    },
    "7133": {
        "city": "Buvrinnes",
        "lng": 4.2055425,
        "lat": 50.3897538
    },
    "7134": {
        "city": "Ressaix",
        "lng": 4.1910482,
        "lat": 50.4238109
    },
    "7140": {
        "city": "Morlanwelz-Mariemont",
        "lng": 4.243909,
        "lat": 50.4544626
    },
    "7141": {
        "city": "Mont-Sainte-Aldegonde",
        "lng": 4.2340727,
        "lat": 50.4293887
    },
    "7160": {
        "city": "Piéton",
        "lng": 4.2984261,
        "lat": 50.4414944
    },
    "7170": {
        "city": "Manage",
        "lng": 4.2343288,
        "lat": 50.5036133
    },
    "7180": {
        "city": "Seneffe",
        "lng": 4.2664609240834,
        "lat": 50.52505545
    },
    "7181": {
        "city": "Petit-Roeulx-Lez-Nivelles",
        "lng": 4.3186986634815,
        "lat": 50.55876715
    },
    "7190": {
        "city": "Marche-Lez-Ecaussinnes",
        "lng": 4.1832813,
        "lat": 50.5468953
    },
    "7191": {
        "city": "Ecaussinnes-Lalaing",
        "lng": 4.1785518,
        "lat": 50.5703563
    },
    "7300": {
        "city": "Boussu",
        "lng": 3.7960902,
        "lat": 50.4331253
    },
    "7301": {
        "city": "Hornu",
        "lng": 3.8276077,
        "lat": 50.4337613
    },
    "7320": {
        "city": "Bernissart",
        "lng": 3.6504677,
        "lat": 50.475502
    },
    "7321": {
        "city": "Harchies",
        "lng": 3.6936,
        "lat": 50.4794445
    },
    "7322": {
        "city": "Ville-Pommeroeul",
        "lng": 3.7304437,
        "lat": 50.471652
    },
    "7330": {
        "city": "Saint-Ghislain",
        "lng": 3.8214781396442,
        "lat": 50.448359502766
    },
    "7331": {
        "city": "Baudour",
        "lng": 3.8327577,
        "lat": 50.4814352
    },
    "7332": {
        "city": "Sirault",
        "lng": 3.7881267,
        "lat": 50.5060592
    },
    "7333": {
        "city": "Tertre",
        "lng": 3.8081735,
        "lat": 50.4673149
    },
    "7334": {
        "city": "Villerot",
        "lng": 3.7902777,
        "lat": 50.4861629
    },
    "7340": {
        "city": "Wasmes",
        "lng": 3.846637,
        "lat": 50.414181
    },
    "7350": {
        "city": "Thulin",
        "lng": 3.7393229,
        "lat": 50.4292832
    },
    "7370": {
        "city": "Wihéries",
        "lng": 3.7521224,
        "lat": 50.3852902
    },
    "7380": {
        "city": "Quiévrain",
        "lng": 3.6819263,
        "lat": 50.4084818
    },
    "7382": {
        "city": "Audregnies",
        "lng": 3.7177788,
        "lat": 50.3830135
    },
    "7387": {
        "city": "Roisin",
        "lng": 3.6938101,
        "lat": 50.333082
    },
    "7390": {
        "city": "Wasmuel",
        "lng": 3.8466719,
        "lat": 50.445727
    },
    "7500": {
        "city": "Tournai",
        "lng": 3.3878259,
        "lat": 50.60566
    },
    "7501": {
        "city": "Orcq",
        "lng": 3.3492864,
        "lat": 50.6049549
    },
    "7502": {
        "city": "Esplechin",
        "lng": 3.3038112,
        "lat": 50.5743852
    },
    "7503": {
        "city": "Froyennes",
        "lng": 3.3569842,
        "lat": 50.6195489
    },
    "7504": {
        "city": "Froidmont",
        "lng": 3.3287795,
        "lat": 50.57792
    },
    "7506": {
        "city": "Willemeau",
        "lng": 3.350025,
        "lat": 50.573981
    },
    "7520": {
        "city": "Templeuve",
        "lng": 3.2831577,
        "lat": 50.6449056
    },
    "7521": {
        "city": "Chercq",
        "lng": 3.4212542,
        "lat": 50.5885516
    },
    "7522": {
        "city": "Marquain",
        "lng": 3.3226398,
        "lat": 50.6078843
    },
    "7530": {
        "city": "Gaurain-Ramecroix",
        "lng": 3.4834445,
        "lat": 50.5924891
    },
    "7531": {
        "city": "Havinnes",
        "lng": 3.4655917,
        "lat": 50.6156953
    },
    "7532": {
        "city": "Beclers",
        "lng": 3.5028761,
        "lat": 50.6217774
    },
    "7533": {
        "city": "Thimougies",
        "lng": 3.5102508,
        "lat": 50.6349458
    },
    "7534": {
        "city": "Maulde",
        "lng": 3.5483951,
        "lat": 50.6169646
    },
    "7536": {
        "city": "Vaulx",
        "lng": 3.426172,
        "lat": 50.589889
    },
    "7538": {
        "city": "Vezon",
        "lng": 3.5017888,
        "lat": 50.5683976
    },
    "7540": {
        "city": "Rumillies",
        "lng": 3.4372618,
        "lat": 50.6201039
    },
    "7542": {
        "city": "Mont-Saint-Aubert",
        "lng": 3.4000171,
        "lat": 50.6554352
    },
    "7543": {
        "city": "Mourcourt",
        "lng": 3.445164,
        "lat": 50.6530409
    },
    "7548": {
        "city": "Warchin",
        "lng": 3.4267528,
        "lat": 50.6096187
    },
    "7600": {
        "city": "Péruwelz",
        "lng": 3.5908864,
        "lat": 50.5097897
    },
    "7601": {
        "city": "Roucourt",
        "lng": 3.5870901,
        "lat": 50.529165
    },
    "7602": {
        "city": "Bury",
        "lng": 3.59458,
        "lat": 50.5426384
    },
    "7603": {
        "city": "Bon-Secours",
        "lng": 3.607483,
        "lat": 50.4976184
    },
    "7604": {
        "city": "Wasmes-Audemez-Briffoeil",
        "lng": 3.5352247,
        "lat": 50.5539524
    },
    "7608": {
        "city": "Wiers",
        "lng": 3.533035,
        "lat": 50.508665
    },
    "7610": {
        "city": "Rumes",
        "lng": 3.3039251,
        "lat": 50.5557678
    },
    "7611": {
        "city": "La Glanerie",
        "lng": 3.3010202,
        "lat": 50.5298416
    },
    "7618": {
        "city": "Taintignies",
        "lng": 3.3416855,
        "lat": 50.5502028
    },
    "7620": {
        "city": "Wez-Velvain",
        "lng": 3.388586,
        "lat": 50.5468427
    },
    "7621": {
        "city": "Lesdain",
        "lng": 3.3880963285681,
        "lat": 50.520291
    },
    "7622": {
        "city": "Laplaigne",
        "lng": 3.4418587625525,
        "lat": 50.52296155
    },
    "7623": {
        "city": "Rongy",
        "lng": 3.3815632027097,
        "lat": 50.50665205
    },
    "7624": {
        "city": "Howardries",
        "lng": 3.3541900391658,
        "lat": 50.5170287
    },
    "7640": {
        "city": "Péronnes-Lez-Antoing",
        "lng": 3.4538057,
        "lat": 50.551862
    },
    "7641": {
        "city": "Bruyelle",
        "lng": 3.426992,
        "lat": 50.557403
    },
    "7642": {
        "city": "Calonne",
        "lng": 3.4371661,
        "lat": 50.578325
    },
    "7643": {
        "city": "Fontenoy",
        "lng": 3.473373,
        "lat": 50.567887
    },
    "7700": {
        "city": "Mouscron",
        "lng": 3.2139093,
        "lat": 50.7433351
    },
    "7711": {
        "city": "Dottignies",
        "lng": 3.3037301,
        "lat": 50.7273981
    },
    "7712": {
        "city": "Herseaux",
        "lng": 3.2342044,
        "lat": 50.7227127
    },
    "7730": {
        "city": "Saint-Léger",
        "lng": 3.3149729,
        "lat": 50.7056533
    },
    "7740": {
        "city": "Warcoing",
        "lng": 3.3451985,
        "lat": 50.702173
    },
    "7742": {
        "city": "Hérinnes-Lez-Pecq",
        "lng": 3.3623581,
        "lat": 50.7008798
    },
    "7743": {
        "city": "Obigies",
        "lng": 3.364281,
        "lat": 50.662055
    },
    "7750": {
        "city": "Russeignies",
        "lng": 3.5309528,
        "lat": 50.7447633
    },
    "7760": {
        "city": "Velaines",
        "lng": 3.4865934,
        "lat": 50.6685604
    },
    "7780": {
        "city": "Comines-Warneton",
        "lng": 3.0019077817068,
        "lat": 50.77120012074
    },
    "7781": {
        "city": "Houthem",
        "lng": 2.9640553,
        "lat": 50.7868243
    },
    "7782": {
        "city": "Ploegsteert",
        "lng": 2.8803139,
        "lat": 50.7262204
    },
    "7783": {
        "city": "Bizet",
        "lng": 2.88999,
        "lat": 50.7060943
    },
    "7784": {
        "city": "Warneton",
        "lng": 2.9502023,
        "lat": 50.7529932
    },
    "7800": {
        "city": "Lanquesaint",
        "lng": 3.8042549,
        "lat": 50.6534242
    },
    "7801": {
        "city": "Irchonwelz",
        "lng": 3.7536768,
        "lat": 50.6201619
    },
    "7802": {
        "city": "Ormeignies",
        "lng": 3.7516336,
        "lat": 50.5947224
    },
    "7803": {
        "city": "Bouvignies",
        "lng": 3.7677307,
        "lat": 50.6477056
    },
    "7804": {
        "city": "Rebaix",
        "lng": 3.7836911,
        "lat": 50.660198
    },
    "7810": {
        "city": "Maffle",
        "lng": 3.8060162,
        "lat": 50.615068
    },
    "7811": {
        "city": "Arbre",
        "lng": 3.8148309,
        "lat": 50.6103517
    },
    "7812": {
        "city": "Villers-Saint-Amand",
        "lng": 3.730712,
        "lat": 50.6226624
    },
    "7822": {
        "city": "Meslin-L'evêque",
        "lng": 3.8480962,
        "lat": 50.6485784
    },
    "7823": {
        "city": "Gibecq",
        "lng": 3.8878195,
        "lat": 50.637673
    },
    "7830": {
        "city": "Thoricourt",
        "lng": 3.9509699,
        "lat": 50.6101161
    },
    "7850": {
        "city": "Petit-Enghien",
        "lng": 4.0845939,
        "lat": 50.6899321
    },
    "7860": {
        "city": "Lessines",
        "lng": 3.8301131,
        "lat": 50.7123036
    },
    "7861": {
        "city": "Wannebecq",
        "lng": 3.7998354,
        "lat": 50.6940794
    },
    "7862": {
        "city": "Ogy",
        "lng": 3.780225,
        "lat": 50.7208405
    },
    "7863": {
        "city": "Ghoy",
        "lng": 3.8094385,
        "lat": 50.7283427
    },
    "7864": {
        "city": "Deux-Acren",
        "lng": 3.8522036,
        "lat": 50.7307336
    },
    "7866": {
        "city": "Ollignies",
        "lng": 3.8598773,
        "lat": 50.6874157
    },
    "7870": {
        "city": "Montignies-Lez-Lens",
        "lng": 3.9433795,
        "lat": 50.5643065
    },
    "7880": {
        "city": "Flobecq",
        "lng": 3.7378707,
        "lat": 50.7371675
    },
    "7890": {
        "city": "Wodecq",
        "lng": 3.7444299,
        "lat": 50.7178459
    },
    "7900": {
        "city": "Leuze-En-Hainaut",
        "lng": 3.617736902638,
        "lat": 50.599042981582
    },
    "7901": {
        "city": "Thieulain",
        "lng": 3.6085857,
        "lat": 50.6179826
    },
    "7903": {
        "city": "Chapelle-À-Wattines",
        "lng": 3.6551354,
        "lat": 50.6125001
    },
    "7904": {
        "city": "Willaupuis",
        "lng": 3.6038961,
        "lat": 50.566635
    },
    "7906": {
        "city": "Gallaix",
        "lng": 3.5748349,
        "lat": 50.6060715
    },
    "7910": {
        "city": "Wattripont",
        "lng": 3.5489704,
        "lat": 50.7282535
    },
    "7911": {
        "city": "Oeudeghien",
        "lng": 3.7117971,
        "lat": 50.6780664
    },
    "7912": {
        "city": "Saint-Sauveur",
        "lng": 3.5977459,
        "lat": 50.7061803
    },
    "7940": {
        "city": "Cambron-Casteau",
        "lng": 3.8807488,
        "lat": 50.5885597
    },
    "7941": {
        "city": "Attre",
        "lng": 3.8410951,
        "lat": 50.6102428
    },
    "7942": {
        "city": "Mévergnies-Lez-Lens",
        "lng": 3.8507081,
        "lat": 50.6044689
    },
    "7943": {
        "city": "Gages",
        "lng": 3.8910777,
        "lat": 50.6068018
    },
    "7950": {
        "city": "Tongre-Saint-Martin",
        "lng": 3.7907921,
        "lat": 50.5860413
    },
    "7951": {
        "city": "Tongre-Notre-Dame",
        "lng": 3.7748043,
        "lat": 50.581313
    },
    "7970": {
        "city": "Beloeil",
        "lng": 3.7361279,
        "lat": 50.5479197
    },
    "7971": {
        "city": "Wadelincourt",
        "lng": 3.6483678,
        "lat": 50.5385955
    },
    "7972": {
        "city": "Quevaucamps",
        "lng": 3.6909731,
        "lat": 50.5302519
    },
    "7973": {
        "city": "Stambruges",
        "lng": 3.7202435,
        "lat": 50.508349
    },
    "8000": {
        "city": "Koolkerke",
        "lng": 3.2473789,
        "lat": 51.2419954
    },
    "8020": {
        "city": "Waardamme",
        "lng": 3.2222872,
        "lat": 51.1123296
    },
    "8200": {
        "city": "Sint-Michiels",
        "lng": 3.2111722,
        "lat": 51.1884619
    },
    "8210": {
        "city": "Zedelgem",
        "lng": 3.1404473279372,
        "lat": 51.1355326
    },
    "8211": {
        "city": "Aartrijke",
        "lng": 3.0913265545139,
        "lat": 51.1180002
    },
    "8300": {
        "city": "Westkapelle",
        "lng": 3.3172865697943,
        "lat": 51.3207807
    },
    "8301": {
        "city": "Ramskapelle",
        "lng": 3.2505004,
        "lat": 51.3126954
    },
    "8310": {
        "city": "Sint-Kruis",
        "lng": 3.2506508,
        "lat": 51.2142018
    },
    "8340": {
        "city": "Sijsele",
        "lng": 3.3435315097294,
        "lat": 51.210525
    },
    "8370": {
        "city": "Uitkerke",
        "lng": 3.1404868099971,
        "lat": 51.2996935
    },
    "8377": {
        "city": "Zuienkerke",
        "lng": 3.1567406094326,
        "lat": 51.2685834
    },
    "8380": {
        "city": "Zeebrugge",
        "lng": 3.2078842,
        "lat": 51.331382
    },
    "8400": {
        "city": "Zandvoorde",
        "lng": 2.9668008654261,
        "lat": 51.20484775
    },
    "8420": {
        "city": "Wenduine",
        "lng": 3.0927740709639,
        "lat": 51.3019771
    },
    "8421": {
        "city": "Vlissegem",
        "lng": 3.0635598193415,
        "lat": 51.2641695
    },
    "8430": {
        "city": "Middelkerke",
        "lng": 2.8063401225473,
        "lat": 51.18331695
    },
    "8431": {
        "city": "Wilskerke",
        "lng": 2.8401373,
        "lat": 51.1809498
    },
    "8432": {
        "city": "Leffinge",
        "lng": 2.8776766,
        "lat": 51.1746761
    },
    "8433": {
        "city": "Slijpe",
        "lng": 2.8476959,
        "lat": 51.1543955
    },
    "8434": {
        "city": "Westende",
        "lng": 2.7777512824641,
        "lat": 51.15833025
    },
    "8450": {
        "city": "Bredene",
        "lng": 2.9725769468284,
        "lat": 51.23890495
    },
    "8460": {
        "city": "Westkerke",
        "lng": 3.0047445512126,
        "lat": 51.16355795
    },
    "8470": {
        "city": "Zevekote",
        "lng": 2.9016605351732,
        "lat": 51.1381923
    },
    "8480": {
        "city": "Ichtegem",
        "lng": 3.0296222129927,
        "lat": 51.08742745
    },
    "8490": {
        "city": "Zerkegem",
        "lng": 3.0612486455732,
        "lat": 51.1712593
    },
    "8500": {
        "city": "Kortrijk",
        "lng": 3.2784153903743,
        "lat": 50.81788085
    },
    "8501": {
        "city": "Heule",
        "lng": 3.2382004806211,
        "lat": 50.8511736
    },
    "8510": {
        "city": "Rollegem",
        "lng": 3.2564730180436,
        "lat": 50.77232975
    },
    "8511": {
        "city": "Aalbeke",
        "lng": 3.2186046321991,
        "lat": 50.77745545
    },
    "8520": {
        "city": "Kuurne",
        "lng": 3.2736322150643,
        "lat": 50.86005145
    },
    "8530": {
        "city": "Harelbeke",
        "lng": 3.3425511,
        "lat": 50.8293249
    },
    "8531": {
        "city": "Hulste",
        "lng": 3.2990273,
        "lat": 50.8820656
    },
    "8540": {
        "city": "Deerlijk",
        "lng": 3.3622790229139,
        "lat": 50.83878495
    },
    "8550": {
        "city": "Zwevegem",
        "lng": 3.3419067426276,
        "lat": 50.80406995
    },